"UniqueID","SiteName","Prov","Prov_2","Year","Month","Day","DateObserved","Month_alpha","Observer_anon","Observer_contact_anon","Lat","Long","Source_anon","Source_type","SpeciesAlphaCode","CommonName","LatinName","GroupAs","Individual_HPAIVstatus","AgeClass","BreedingStatus","LandWater","Colony_Y_N","IFcolony_complete_partial_survey","IFcolony_boat_foot_heli_plane","n_FoundNeurological","n_FoundDead","TotalObserved","Comments","id","concatenated_ids_eccc","concatenated_ids_trevor","concatenated_ids_cwhc","concatenated_ids_cfia","Duplicate"
"MT-737","St. Bride's","NL","Newfoundland",2022,7,20,2022-07-20,"July","fb8c3a7ee3d1230fd5c67d6d9b4a757c","35bf944fdd9c278ee3434393e20c9007",46.92027,-54.174969,"d964586e64933d008f84b9451c2a97ed","Public","COMU","Common Murre","Uria aalge","seabirds",NA,NA,NA,"Land",NA,NA,NA,NA,"50","50",NA,NA,NA,NA,NA,NA,NA
"CT-162","Green Island, Bay of Islands","NL","Newfoundland",2022,7,27,2022-07-27,"July","7537dbc04e7113c2a90d023297f80b06","831baa07a7fe2f265d8e19402c8f1c39",49.16314,-58.146014,"d964586e64933d008f84b9451c2a97ed","Public","Unknown Gull","Unknown Gull","Laridae sp. ","seabirds",NA,NA,NA,"Land","Y","Incidental (during ARU deployment)","Land/Boat","1","6","7",">200 Alive and Acting fine",NA,NA,NA,NA,NA,NA
"MT-1126","Trepassey, NL","NL","Newfoundland",2022,7,21,2022-07-21,"July","67b28ee2871851e24e5235aea70d503e","e60b106dbb54412e5e8e9b6b51ae5bdb",46.73612,-53.3603,"df5f3ae234ec98b8589a82d9bffd6182","Provincial","RAZO","Razorbill","Alca torda","seabirds",NA,NA,NA,"Land",NA,NA,NA,NA,"1","1",NA,NA,NA,NA,NA,NA,NA
"MT-1143","Shoal Bay Beach, NL","NL","Newfoundland",2022,7,21,2022-07-21,"July","16c64f93e4f0fc045f407f562249d515","53a63cde7ccfaef4090db83f0f68e723",46.99642,-53.6164,"df5f3ae234ec98b8589a82d9bffd6182","Provincial","NOGA","Northern Gannet","Morus bassanus","seabirds",NA,NA,NA,"Land",NA,NA,NA,NA,"5","5",NA,NA,NA,NA,NA,NA,NA
"MT-1144","Shoal Bay Beach, NL","NL","Newfoundland",2022,7,21,2022-07-21,"July","16c64f93e4f0fc045f407f562249d515","53a63cde7ccfaef4090db83f0f68e723",46.99642,-53.6164,"df5f3ae234ec98b8589a82d9bffd6182","Provincial","GRSH","Great Shearwater","Ardenna gravis","seabirds",NA,NA,NA,"Land",NA,NA,NA,NA,"1","1",NA,NA,NA,NA,NA,NA,NA
"MT-1145","Kipens, NL","NL","Newfoundland",2022,7,21,2022-07-21,"July","8d6ace2888ed5f8bcbd13afd182b4a15","cd27fba1a797163a7af7290bc418dd2e",48.5489,-58.6236,"df5f3ae234ec98b8589a82d9bffd6182","Provincial","NOGA","Northern Gannet","Morus bassanus","seabirds",NA,NA,NA,"Land",NA,NA,NA,NA,"4","4",NA,NA,NA,NA,NA,NA,NA
"MT-1146","Lower Pond, Witless Bay","NL","Newfoundland",2022,7,21,2022-07-21,"July","3d6ad725337e1a37c2066fdf0e197bda","1b1f1fdf53e06c6ef4eb422178e04c31",47.281591,-52.812376,"2f05ec00f6b4acd8dfffa81361aa339d","Public","BLKI","Black-legged Kittiwake","Rissa tridactyla","seabirds",NA,"Adult","breeding","Land",NA,NA,NA,"0","2","2",NA,NA,NA,NA,NA,NA,NA
"MT-1147","Lower Pond Beach, Witless Bay","NL","Newfoundland",2022,7,21,2022-07-21,"July","3d6ad725337e1a37c2066fdf0e197bda","1b1f1fdf53e06c6ef4eb422178e04c31",47.281469,-52.81023,"2f05ec00f6b4acd8dfffa81361aa339d","Public","NOGA","Northern Gannet","Morus bassanus","seabirds",NA,"Adult",NA,"Land",NA,NA,NA,"0","1","1",NA,NA,NA,NA,NA,NA,NA
"MT-1999","Cape Freels","NL","Newfoundland",2022,8,17,2022-08-17,"August","bcbac102f4bf67df61b53d34075f8759","1b1f1fdf53e06c6ef4eb422178e04c31",49.260353,-53.5,"d964586e64933d008f84b9451c2a97ed","Public","COMU","Common Murre","Uria aalge","seabirds",NA,NA,NA,"Land",NA,NA,NA,NA,NA,"100","100+ common murres, one still alive on the beach but near death",NA,NA,NA,NA,NA,NA
"MT-2000","Cape Freels","NL","Newfoundland",2022,8,17,2022-08-17,"August","bcbac102f4bf67df61b53d34075f8759","1b1f1fdf53e06c6ef4eb422178e04c31",49.260353,-53.5,"d964586e64933d008f84b9451c2a97ed","Public","NOGA","Northern Gannet","Morus bassanus","seabirds",NA,NA,NA,"Land",NA,NA,NA,NA,NA,"50",NA,NA,NA,NA,NA,NA,NA
"MT-2001","Cape Freels","NL","Newfoundland",2022,8,17,2022-08-17,"August","bcbac102f4bf67df61b53d34075f8759","1b1f1fdf53e06c6ef4eb422178e04c31",49.260353,-53.5,"d964586e64933d008f84b9451c2a97ed","Public","DOVE","Dovekie","Alle alle","seabirds",NA,NA,NA,"Land",NA,NA,NA,NA,NA,"5",NA,NA,NA,NA,NA,NA,NA
"MT-2002","Cape Freels","NL","Newfoundland",2022,8,17,2022-08-17,"August","bcbac102f4bf67df61b53d34075f8759","1b1f1fdf53e06c6ef4eb422178e04c31",49.260353,-53.5,"d964586e64933d008f84b9451c2a97ed","Public","SOSH","Sooty Shearwater","Ardenna grisea","seabirds",NA,NA,NA,"Land",NA,NA,NA,NA,NA,"1",NA,NA,NA,NA,NA,NA,NA
"MT-2003","Cape Freels","NL","Newfoundland",2022,8,17,2022-08-17,"August","bcbac102f4bf67df61b53d34075f8759","1b1f1fdf53e06c6ef4eb422178e04c31",49.260353,-53.5,"d964586e64933d008f84b9451c2a97ed","Public","HERG","Herring Gull","Larus argentatus","seabirds",NA,"Juvenile",NA,"Land",NA,NA,NA,NA,NA,"1","1 herring gull, juvenile, still alive but in obvious distress",NA,NA,NA,NA,NA,NA
"MT-1260","Musgrave Harbour","NL","Newfoundland",2022,7,29,2022-07-29,"July","a9f81a8951db3dfe009c43047e3b821d","1b1f1fdf53e06c6ef4eb422178e04c31",49.4418,-53.93,"d964586e64933d008f84b9451c2a97ed","Public","NOGA","Northern Gannet","Morus bassanus","seabirds",NA,NA,NA,"Land",NA,NA,NA,NA,"1","1","Potentiall the first Funk Island bird.",NA,NA,NA,NA,NA,NA
"MT-1990","Cape Freels","NL","Newfoundland",2022,8,16,2022-08-16,"August","50b8b2f73bc2a2cb671dc27f9da8ef0c","1b1f1fdf53e06c6ef4eb422178e04c31",49.260353,-53.5,"d964586e64933d008f84b9451c2a97ed","Public","COMU","Common Murre","Uria aalge","seabirds",NA,NA,NA,"Land",NA,NA,NA,NA,NA,"400","16 Aug 2022 - 400 birds [mostly murres] Cape Freels beaches [Bill Bryden]",NA,NA,NA,NA,NA,NA
"MT-1157","176 Harbour Road, Witless Bay","NL","Newfoundland",2022,7,22,2022-07-22,"July","36ed1e49e26ef9227515f112aa65e413","1b1f1fdf53e06c6ef4eb422178e04c31",47.28056,-52.8141,"df5f3ae234ec98b8589a82d9bffd6182","Provincial","Unknown Gull","Unknown Gull","Laridae sp. ","seabirds",NA,NA,NA,"Land",NA,NA,NA,NA,"1","1",NA,NA,NA,NA,NA,NA,NA
"MT-327","Point May to Lord's Cove (22 km via ATV) ","NL","Newfoundland",2022,7,17,2022-07-17,"July","b99aa883e692ac832d46a1087d8f6aa7","1b1f1fdf53e06c6ef4eb422178e04c31",46.899622,-55.937704,"d964586e64933d008f84b9451c2a97ed","Public","COMU","Common Murre","Uria aalge","seabirds",NA,NA,NA,"Land",NA,NA,NA,NA,"233","233","Number estimated from account: ""just E of Pt May to Lord's Cove 22 km by ATV - Bob Hennebery counted 257 birds of varying ages mostly murres, 7 - 8 gannets, 7 - 8 gulls, puffins ...""",NA,NA,NA,NA,NA,NA
"MT-328","Point May to Lord's Cove (22 km via ATV) ","NL","Newfoundland",2022,7,17,2022-07-17,"July","b99aa883e692ac832d46a1087d8f6aa7","1b1f1fdf53e06c6ef4eb422178e04c31",46.899622,-55.937704,"d964586e64933d008f84b9451c2a97ed","Public","NOGA","Northern Gannet","Morus bassanus","seabirds",NA,NA,NA,"Land",NA,NA,NA,NA,"8","8","Number estimated from account: ""just E of Pt May to Lord's Cove 22 km by ATV - Bob Hennebery counted 257 birds of varying ages mostly murres, 7 - 8 gannets, 7 - 8 gulls, puffins ...""",NA,NA,NA,NA,NA,NA
"MT-329","Point May to Lord's Cove (22 km via ATV) ","NL","Newfoundland",2022,7,17,2022-07-17,"July","b99aa883e692ac832d46a1087d8f6aa7","1b1f1fdf53e06c6ef4eb422178e04c31",46.899622,-55.937704,"d964586e64933d008f84b9451c2a97ed","Public","Unknown Gull","Unknown Gull","Laridae sp. ","seabirds",NA,NA,NA,"Land",NA,NA,NA,NA,"8","8","Number estimated from account: ""just E of Pt May to Lord's Cove 22 km by ATV - Bob Hennebery counted 257 birds of varying ages mostly murres, 7 - 8 gannets, 7 - 8 gulls, puffins ...""",NA,NA,NA,NA,NA,NA
"MT-330","Point May to Lord's Cove (22 km via ATV) ","NL","Newfoundland",2022,7,17,2022-07-17,"July","b99aa883e692ac832d46a1087d8f6aa7","1b1f1fdf53e06c6ef4eb422178e04c31",46.899622,-55.937704,"d964586e64933d008f84b9451c2a97ed","Public","ATPU","Atlantic Puffin","Fratercula arctica","seabirds",NA,NA,NA,"Land",NA,NA,NA,NA,"10","10","Number estimated from account: ""just E of Pt May to Lord's Cove 22 km by ATV - Bob Hennebery counted 257 birds of varying ages mostly murres, 7 - 8 gannets, 7 - 8 gulls, puffins ...""",NA,NA,NA,NA,NA,NA
"MT-1168","Trepassey, NL","NL","Newfoundland",2022,7,22,2022-07-22,"July","3fc98f1f565fa448f46b06766230b8a2","d4990d862f4b276715cf40ae885322e8",46.73612,-53.3603,"df5f3ae234ec98b8589a82d9bffd6182","Provincial","Unknown Bird","Unknown Bird","Aves (gen, sp)",NA,NA,NA,NA,"Land",NA,NA,NA,NA,"20","20","Mix of NOGA, RAZO and murres",NA,NA,NA,NA,NA,NA
"MT-1171","Saint Bride's, NL","NL","Newfoundland",2022,7,22,2022-07-22,"July","45188f2bf52906194c6e44806233dd40","1b1f1fdf53e06c6ef4eb422178e04c31",46.91995,-54.1723,"df5f3ae234ec98b8589a82d9bffd6182","Provincial","NOGA","Northern Gannet","Morus bassanus","seabirds",NA,NA,NA,"Land",NA,NA,NA,NA,"1","1",NA,NA,NA,NA,NA,NA,NA
"MT-3416","Point May to Lords Cove","NL","Newfoundland",2022,7,15,2022-07-15,"July","c33db74ccef73232fb016b1b0548c929","1b1f1fdf53e06c6ef4eb422178e04c31",46.88089,-55.67023,"92c669e40748105782a0a350a4f78b3e","Academic","COMU","Common Murre","Uria aalge","seabirds",NA,NA,NA,NA,NA,NA,NA,"0","237","237","ATV Survey 22 km, COMU/TBMU","TB044",NA,NA,NA,NA,NA
"MT-1174","Gooseberry Cove, NL","NL","Newfoundland",2022,7,22,2022-07-22,"July","451544bb08cab42018b5acd1113a9119","1b1f1fdf53e06c6ef4eb422178e04c31",48.03467,-53.6404,"df5f3ae234ec98b8589a82d9bffd6182","Provincial","NOGA","Northern Gannet","Morus bassanus","seabirds",NA,NA,NA,"Land",NA,NA,NA,NA,"2","2",NA,NA,NA,NA,NA,NA,NA
"MT-1175","Lower Pond, Witless Bay","NL","Newfoundland",2022,7,22,2022-07-22,"July","23e640f2a8a5d33bd1a9f3c1d46362b1","1b1f1fdf53e06c6ef4eb422178e04c31",47.281591,-52.812376,"d964586e64933d008f84b9451c2a97ed","Public","BLKI","Black-legged Kittiwake","Rissa tridactyla","seabirds",NA,NA,NA,"Land",NA,NA,NA,"0","2","2",NA,NA,NA,NA,NA,NA,"unique"
"MT-1176","Lower Pond Beach, Witless Bay","NL","Newfoundland",2022,7,22,2022-07-22,"July","23e640f2a8a5d33bd1a9f3c1d46362b1","1b1f1fdf53e06c6ef4eb422178e04c31",47.281469,-52.812376,"d964586e64933d008f84b9451c2a97ed","Public","BLKI","Black-legged Kittiwake","Rissa tridactyla","seabirds",NA,NA,NA,"Land",NA,NA,NA,"0","1","1",NA,NA,NA,NA,NA,NA,"unique"
"MT-3450","Shoal Cove, St. Lawrence","NL","Newfoundland",2022,7,18,2022-07-18,"July","c4c8241b10a2e52e5ebf743965a98ec6","1b1f1fdf53e06c6ef4eb422178e04c31",46.88156,-55.40012,"92c669e40748105782a0a350a4f78b3e","Academic","COMU","Common Murre","Uria aalge","seabirds",NA,NA,NA,NA,NA,NA,NA,"0","200","200","mostly murres, TBMU/COMU","TB079",NA,NA,NA,NA,"unique"
"MT-1179","Mobile Bay","NL","Newfoundland",2022,7,22,2022-07-22,"July","23e640f2a8a5d33bd1a9f3c1d46362b1","1b1f1fdf53e06c6ef4eb422178e04c31",47.245704,-52.836421,"d964586e64933d008f84b9451c2a97ed","Public","GBBG","Great Black-backed Gull","Larus marinus","seabirds",NA,NA,NA,"Water",NA,NA,NA,"0","1","1",NA,NA,NA,NA,NA,NA,NA
"MT-1178","Mobile Bay","NL","Newfoundland",2022,7,22,2022-07-22,"July","23e640f2a8a5d33bd1a9f3c1d46362b1","1b1f1fdf53e06c6ef4eb422178e04c31",47.245704,-52.836421,"d964586e64933d008f84b9451c2a97ed","Public","COMU","Common Murre","Uria aalge","seabirds",NA,NA,NA,"Water",NA,NA,NA,"3","3","6",NA,NA,NA,NA,NA,NA,NA
"MT-1177","Lower Pond Beach, Witless Bay","NL","Newfoundland",2022,7,22,2022-07-22,"July","23e640f2a8a5d33bd1a9f3c1d46362b1","1b1f1fdf53e06c6ef4eb422178e04c31",47.281469,-52.812376,"d964586e64933d008f84b9451c2a97ed","Public","COMU","Common Murre","Uria aalge","seabirds",NA,NA,NA,"Land",NA,NA,NA,"0","1","1",NA,NA,NA,NA,NA,NA,"unique"
"MT-1938","Cape St George","NL","Newfoundland",2022,8,12,2022-08-12,"August","862b038f1c58c3d2f81fc9e065d90288","1b1f1fdf53e06c6ef4eb422178e04c31",48.466667,-59.25,"d964586e64933d008f84b9451c2a97ed","ECCC","BLKI","Black-legged Kittiwake","Rissa tridactyla","seabirds",NA,NA,NA,"Land",NA,NA,NA,NA,"8","8","Poss all juveniles,tight clusters of 3 and 2, and the others were on their own.",NA,NA,NA,NA,NA,NA
"MT-1182","Witless Bay Beach","NL","Newfoundland",2022,7,23,2022-07-23,"July","a43f982718de2c2103b5be5124d3053d","4ff103aff54b9b3bfad1407c9cd6fcea",47.278,-52.83,"29f5f680dfb72ab10c8cd6a2e8a8cb97","Academic","BLKI","Black-legged Kittiwake","Rissa tridactyla","seabirds",NA,NA,NA,"Land",NA,NA,NA,NA,"1","1","On the beach",NA,NA,NA,NA,NA,NA
"MT-3505","40 miles south of Branch and St. Shotts","NL","Newfoundland",2022,7,27,2022-07-27,"July","7b2995e9911a4c44191f4fc5e205622f","1b1f1fdf53e06c6ef4eb422178e04c31",46.3697661,-54.2174906,"92c669e40748105782a0a350a4f78b3e","Academic","COMU","Common Murre","Uria aalge","seabirds",NA,NA,NA,NA,NA,NA,NA,"0","175","175","Given as ""150-200"", COMU/TBMU","TB134",NA,NA,NA,NA,"unique"
"MT-6131","Point Lance Beach","NL","Newfoundland",2022,7,22,2022-07-22,"July","a78b42869e866cfc3f43d754f6022ff0","1b1f1fdf53e06c6ef4eb422178e04c31",46.81375,-54.08388,"92c669e40748105782a0a350a4f78b3e","Academic","COMU","Common Murre","Uria aalge","seabirds",NA,"Adult",NA,NA,NA,NA,NA,NA,NA,"151",NA,"TB094",NA,NA,NA,NA,NA
"MT-320","Bird Cove","NL","Newfoundland",2022,7,16,2022-07-16,"July","99bdd617111e2b083e8edc67c86d7f56","1b1f1fdf53e06c6ef4eb422178e04c31",51.059251,-56.921996,"d964586e64933d008f84b9451c2a97ed","Provincial","COMU","Common Murre","Uria aalge","seabirds",NA,NA,NA,"Water",NA,NA,NA,NA,"188","188","Likely birds were on the water, but unsure.",NA,NA,NA,NA,NA,NA
"MT-1262","Bird Rock CSM","NL","Newfoundland",2022,7,29,2022-07-29,"July","99bdd617111e2b083e8edc67c86d7f56","1b1f1fdf53e06c6ef4eb422178e04c31",46.81786,-54.18,"d964586e64933d008f84b9451c2a97ed","Provincial","NOGA","Northern Gannet","Morus bassanus","seabirds",NA,NA,NA,"Land",NA,NA,NA,NA,"200","200","Chris Mooney just called to say 200+ dead gannets on Bird Rock and the mainland colony at the Cape",NA,NA,NA,NA,NA,NA
"MT-3547","Point Lance","NL","Newfoundland",2022,7,31,2022-07-31,"July","a78b42869e866cfc3f43d754f6022ff0","02cd554eabbd478c3b10bc56af822a8c",46.81375,-54.08388,"92c669e40748105782a0a350a4f78b3e","Academic","COMU","Common Murre","Uria aalge","seabirds",NA,NA,NA,NA,NA,NA,NA,NA,NA,"135",NA,"TB180",NA,NA,NA,NA,NA
"MT-1189","O'Donnells Beach","NL","Newfoundland",2022,7,23,2022-07-23,"July","80fd6b1b180830a6668d21ebdfc589e0","595ce0425371334a5a20bf602b04e32d",47.06866,-53.5664,"df5f3ae234ec98b8589a82d9bffd6182","Provincial","NOGA","Northern Gannet","Morus bassanus","seabirds",NA,NA,NA,"Land",NA,NA,NA,NA,"2","2",NA,NA,NA,NA,NA,NA,NA
"MT-1263","St. Joseph's","NL","Newfoundland",2022,7,29,2022-07-29,"July","99bdd617111e2b083e8edc67c86d7f56","1b1f1fdf53e06c6ef4eb422178e04c31",47.118838,-53.514881,"d964586e64933d008f84b9451c2a97ed","Provincial","Unknown Loon","Unknown Loon","Gaviidae sp.","loons",NA,NA,NA,"Land",NA,NA,NA,NA,"12","12",NA,NA,NA,NA,NA,NA,NA
"MT-321","Bird Cove","NL","Newfoundland",2022,7,16,2022-07-16,"July","99bdd617111e2b083e8edc67c86d7f56","1b1f1fdf53e06c6ef4eb422178e04c31",51.059251,-56.921996,"d964586e64933d008f84b9451c2a97ed","Provincial","NOGA","Northern Gannet","Morus bassanus","seabirds",NA,NA,NA,"Water",NA,NA,NA,NA,"18","18","Likely birds were on the water, but unsure.",NA,NA,NA,NA,NA,NA
"MT-669","Cape St. Mary's","NL","Newfoundland",2022,7,17,2022-07-17,"July","99bdd617111e2b083e8edc67c86d7f56","1b1f1fdf53e06c6ef4eb422178e04c31",46.821,-54.2,"d964586e64933d008f84b9451c2a97ed","Provincial","NOGA","Northern Gannet","Morus bassanus","seabirds",NA,NA,NA,"Land",NA,NA,NA,NA,"20","20","Main stack at Cape St Mary's",NA,NA,NA,NA,NA,NA
"MT-3938","St Vincent beach","NL","Newfoundland",2022,7,19,2022-07-19,"July","bee44d45e57ff4888b1db4e5f6ed63bc","b0c8987e33d25c0e50c87ef5a7b5bacd",46.78933,-53.6371,"e8c75a824612d4463b0cc2ecf3e5d71a","ECCC","COMU","Common Murre","Uria aalge","seabirds",NA,NA,NA,"Land",NA,NA,NA,NA,"108","108",NA,NA,NA,NA,NA,NA,NA
"MT-706","Point La Haye, NL","NL","Newfoundland",2022,7,19,2022-07-19,"July","27c618c3ccbf392733427ac7bd51b3d6","b0c8987e33d25c0e50c87ef5a7b5bacd",46.89214,-53.5977,"27c618c3ccbf392733427ac7bd51b3d6","ECCC","COMU","Common Murre","Uria aalge","seabirds",NA,NA,NA,"Land",NA,NA,NA,NA,"101","101","Point L Haye Summary - Sabina W.; conducted by CWS",NA,NA,NA,NA,NA,"unique"
"MT-1198","Saint Vincent's Beach","NL","Newfoundland",2022,7,24,2022-07-24,"July","f972b4c520aacf3a94a2be36ad6bf0f4","3b17b840d93e6b36f02b5dc9be964b41",46.78933,-53.6371,"df5f3ae234ec98b8589a82d9bffd6182","Provincial","NOGA","Northern Gannet","Morus bassanus","seabirds",NA,NA,NA,"Land",NA,NA,NA,NA,"12","12",NA,NA,NA,NA,NA,NA,NA
"MT-1199","Gooseberry Cove, NL","NL","Newfoundland",2022,7,24,2022-07-24,"July","1e35c66487de03c20361b6b4ee38a6bf","dfe8cf9fd5382259070f6cb83d0cdd4c",48.03467,-53.6404,"df5f3ae234ec98b8589a82d9bffd6182","Provincial","NOGA","Northern Gannet","Morus bassanus","seabirds",NA,NA,NA,"Land",NA,NA,NA,NA,"12","12",NA,NA,NA,NA,NA,NA,NA
"MT-1200","Point Lance Beach, NL","NL","Newfoundland",2022,7,24,2022-07-24,"July","d6e15f9ecbcb2e6ca68c9213e708dae1","0778c77e1090ed995969bbf9a1f49ebd",46.81008,-54.0877,"df5f3ae234ec98b8589a82d9bffd6182","Provincial","NOGA","Northern Gannet","Morus bassanus","seabirds",NA,NA,NA,"Land",NA,NA,NA,NA,"12","12","Approx",NA,NA,NA,NA,NA,NA
"MT-1202","Gull Island","NL","Newfoundland",2022,7,25,2022-07-25,"July","4700501ce3c925a4386ff6e8fe8444fa","4d6d7c217064badbbaea788ef205fece",47.262278,-52.79,"e8c75a824612d4463b0cc2ecf3e5d71a","ECCC","BLKI","Black-legged Kittiwake","Rissa tridactyla","seabirds",NA,"Hatch year",NA,"Water",NA,NA,NA,NA,"1","1",NA,NA,NA,NA,NA,NA,"unique"
"MT-1204","Gull Island","NL","Newfoundland",2022,7,25,2022-07-25,"July","4700501ce3c925a4386ff6e8fe8444fa","4d6d7c217064badbbaea788ef205fece",47.26462,-52.78,"e8c75a824612d4463b0cc2ecf3e5d71a","ECCC","BLKI","Black-legged Kittiwake","Rissa tridactyla","seabirds",NA,"Adult",NA,"Land",NA,NA,NA,NA,"1","1","Found dead on the rocks on Gull Island",NA,NA,NA,NA,NA,NA
"MT-3481","Point La Haye Beach","NL","Newfoundland",2022,7,25,2022-07-25,"July","2035dc27f9b6ec6b33d3a21cc6b04e91","1b1f1fdf53e06c6ef4eb422178e04c31",46.8922,-53.59775,"92c669e40748105782a0a350a4f78b3e","Academic","COMU","Common Murre","Uria aalge","seabirds",NA,NA,NA,NA,NA,NA,NA,"0","100","100","""100+"", COMU/TBMU","TB110",NA,NA,NA,NA,"unique"
"MT-3773","St John","NL","Newfoundland",2022,7,29,2022-07-29,"July","41b27f17d05213c9e402e81bab9ed09f","1b1f1fdf53e06c6ef4eb422178e04c31",47.56151,-52.7126,"df5f3ae234ec98b8589a82d9bffd6182","Provincial","COMU","Common Murre","Uria aalge","seabirds",NA,NA,NA,"Water",NA,NA,NA,NA,"100","100","100’s of dead murres floating on surface 80-120 miles SE of St. John’s. ",NA,NA,NA,NA,NA,NA
"MT-1207","Gull Island","NL","Newfoundland",2022,7,25,2022-07-25,"July","4700501ce3c925a4386ff6e8fe8444fa","4d6d7c217064badbbaea788ef205fece",47.262278,-52.79,"e8c75a824612d4463b0cc2ecf3e5d71a","ECCC","ATPU","Atlantic Puffin","Fratercula arctica","seabirds",NA,"Adult",NA,"Water",NA,NA,NA,NA,"1","1",NA,NA,NA,NA,NA,NA,"unique"
"MT-1208","Gull Island","NL","Newfoundland",2022,7,25,2022-07-25,"July","4700501ce3c925a4386ff6e8fe8444fa","4d6d7c217064badbbaea788ef205fece",47.262278,-52.79,"e8c75a824612d4463b0cc2ecf3e5d71a","ECCC","BLKI","Black-legged Kittiwake","Rissa tridactyla","seabirds",NA,"Hatch year",NA,"Water",NA,NA,NA,NA,"2","2","Pre-fledge",NA,NA,NA,NA,NA,"unique"
"MT-1209","Gull Island","NL","Newfoundland",2022,7,25,2022-07-25,"July","4700501ce3c925a4386ff6e8fe8444fa","4d6d7c217064badbbaea788ef205fece",47.262278,-52.79,"e8c75a824612d4463b0cc2ecf3e5d71a","ECCC","RAZO","Razorbill","Alca torda","seabirds",NA,"Hatch year",NA,"Water",NA,NA,NA,NA,"1","1","Post-fledge",NA,NA,NA,NA,NA,NA
"MT-1210","Gull Island","NL","Newfoundland",2022,7,25,2022-07-25,"July","4700501ce3c925a4386ff6e8fe8444fa","4d6d7c217064badbbaea788ef205fece",47.262278,-52.79,"e8c75a824612d4463b0cc2ecf3e5d71a","ECCC","ATPU","Atlantic Puffin","Fratercula arctica","seabirds",NA,"Hatch year",NA,"Water",NA,NA,NA,NA,"1","1","Pre-fledge",NA,NA,NA,NA,NA,"unique"
"MT-3819","St Brendan's Island","NL","Newfoundland",2022,7,28,2022-07-28,"July","7fa24783633030b72e9dc7de501efac1","1b1f1fdf53e06c6ef4eb422178e04c31",48.86508,-53.6586,"3c8b48918dbe01e7edeefb53191e1fbb","Provincial","COMU","Common Murre","Uria aalge","seabirds",NA,NA,NA,"Land",NA,NA,NA,NA,"100","100","100s of murre in water and coast. Said it was last week (TB: date corrected from reported by deducting 1 week)",NA,NA,NA,NA,NA,NA
"MT-1221","Lower Pond, Witless Bay, NL","NL","Newfoundland",2022,7,25,2022-07-25,"July","56a0e7ed29308c453517103474b50427","63ce3a0b43da607a352fcb32bebf6973",47.28424,-52.8138,"df5f3ae234ec98b8589a82d9bffd6182","Provincial","Unknown Gull","Unknown Gull","Laridae sp. ","seabirds",NA,NA,NA,"Land",NA,NA,NA,"1",NA,"1",NA,NA,NA,NA,NA,NA,NA
"MT-1222","Lower Pond, Witless Bay, NL","NL","Newfoundland",2022,7,25,2022-07-25,"July","56a0e7ed29308c453517103474b50427","63ce3a0b43da607a352fcb32bebf6973",47.28424,-52.8138,"df5f3ae234ec98b8589a82d9bffd6182","Provincial","BLKI","Black-legged Kittiwake","Rissa tridactyla","seabirds",NA,NA,NA,"Land",NA,NA,NA,"1",NA,"1",NA,NA,NA,NA,NA,NA,"unique"
"MT-1223","Lower Pond, Witless Bay, NL","NL","Newfoundland",2022,7,25,2022-07-25,"July","56a0e7ed29308c453517103474b50427","63ce3a0b43da607a352fcb32bebf6973",47.28424,-52.8138,"df5f3ae234ec98b8589a82d9bffd6182","Provincial","BLKI","Black-legged Kittiwake","Rissa tridactyla","seabirds",NA,NA,NA,"Land",NA,NA,NA,NA,"8","8",NA,NA,NA,NA,NA,NA,"unique"
"MT-2035","Searston Beach, Codroy Valley","NL","Newfoundland",2022,8,21,2022-08-21,"August","cb50e820710ddf6c812063fce5f0d663","caf521b9500d59ac7461335a74a680e5",47.8344,-59.34,"d964586e64933d008f84b9451c2a97ed","Public","TBMU","Thick-billed Murre","Uria lomvia","seabirds",NA,NA,NA,"Land",NA,NA,NA,"1",NA,"1",NA,NA,NA,NA,NA,NA,NA
"MT-1225","Tors Cove Pond, NL","NL","Newfoundland",2022,7,25,2022-07-25,"July","3b73f105b99828eb1a94cb7fdaacf053","ecc274295a7e76f79eeeefe480388220",47.21291,-52.8747,"df5f3ae234ec98b8589a82d9bffd6182","Provincial","Unknown Gull","Unknown Gull","Laridae sp. ","seabirds",NA,NA,NA,"Land",NA,NA,NA,NA,"10","10",NA,NA,NA,NA,NA,NA,NA
"MT-1921","Sandy Cove Beach, Elliston","NL","Newfoundland",2022,8,8,2022-08-08,"August","26ad6fa7654283b6805c01abb8f8a37e","919d3dc9f45807db742a592a0b973f47",48.6246,-53.03,"d964586e64933d008f84b9451c2a97ed","Public","Unknown Bird","Unknown Bird","Aves (gen, sp)",NA,NA,NA,NA,"Land",NA,NA,NA,NA,"1","1","1 Guillemot or Murre? 1 species unknown (requested images from observer if available. ",NA,NA,NA,NA,NA,NA
"MT-1922","Middle Cove Beach, Logy Bay-Middle Cove-Outer Cove","NL","Newfoundland",2022,8,8,2022-08-08,"August","26ad6fa7654283b6805c01abb8f8a37e","919d3dc9f45807db742a592a0b973f47",47.6507,-52.7,"d964586e64933d008f84b9451c2a97ed","Public","Unknown Gull","Unknown Gull","Laridae sp. ","seabirds",NA,"Juvenile",NA,"Land",NA,NA,NA,NA,"1","1",NA,NA,NA,NA,NA,NA,NA
"MT-3522","Trepassey Bar Beach","NL","Newfoundland",2022,7,30,2022-07-30,"July","3fc98f1f565fa448f46b06766230b8a2","1b1f1fdf53e06c6ef4eb422178e04c31",46.72467,-53.38233,"92c669e40748105782a0a350a4f78b3e","Academic","COMU","Common Murre","Uria aalge","seabirds",NA,NA,NA,NA,NA,NA,NA,NA,NA,"96","Dead/dying, NOGA/COMU/TBMU","TB151",NA,NA,NA,NA,"unique"
"MT-1923","Middle Cove Beach, Logy Bay-Middle Cove-Outer Cove","NL","Newfoundland",2022,8,8,2022-08-08,"August","26ad6fa7654283b6805c01abb8f8a37e","919d3dc9f45807db742a592a0b973f47",47.6507,-52.7,"d964586e64933d008f84b9451c2a97ed","Public","Unknown Bird","Unknown Bird","Aves (gen, sp)",NA,NA,NA,NA,"Land",NA,NA,NA,NA,"2","2",NA,NA,NA,NA,NA,NA,NA
"MT-1933","The beach in Spaniards Bay heading to Bay Roberts","NL","Newfoundland",2022,8,11,2022-08-11,"August","26ad6fa7654283b6805c01abb8f8a37e","919d3dc9f45807db742a592a0b973f47",47.6128,-53.28,"d964586e64933d008f84b9451c2a97ed","Public","NOGA","Northern Gannet","Morus bassanus","seabirds",NA,NA,NA,"Land",NA,NA,NA,"1",NA,"1",NA,NA,NA,NA,NA,NA,NA
"MT-1231","Mobile Bay","NL","Newfoundland",2022,7,25,2022-07-25,"July","3d6ad725337e1a37c2066fdf0e197bda","1b1f1fdf53e06c6ef4eb422178e04c31",47.247007,-52.839185,"2f05ec00f6b4acd8dfffa81361aa339d","Public","ATPU","Atlantic Puffin","Fratercula arctica","seabirds",NA,"Juvenile",NA,"Land",NA,NA,NA,"0","1","1",NA,NA,NA,NA,NA,NA,NA
"MT-1233","Off Tors Cove","NL","Newfoundland",2022,7,25,2022-07-25,"July","3d6ad725337e1a37c2066fdf0e197bda","1b1f1fdf53e06c6ef4eb422178e04c31",47.207594,-52.816272,"2f05ec00f6b4acd8dfffa81361aa339d","Public","BLKI","Black-legged Kittiwake","Rissa tridactyla","seabirds",NA,NA,NA,"Water",NA,NA,NA,"0","1","1",NA,NA,NA,NA,NA,NA,NA
"MT-1234","Point Lance","NL","Newfoundland",2022,7,26,2022-07-26,"July","1d7244e4b14ba59e6f540275f6f3a2e5","abe4d2e5ed4d5da226417dafe0463acf",46.809459,-54.08,"d964586e64933d008f84b9451c2a97ed","Academic","NOGA","Northern Gannet","Morus bassanus","seabirds",NA,"Adult",NA,"Land",NA,NA,NA,NA,"12","12","2 were still alive and moving their head",NA,NA,NA,NA,NA,"unique"
"MT-1235","Point Lance","NL","Newfoundland",2022,7,26,2022-07-26,"July","1d7244e4b14ba59e6f540275f6f3a2e5","abe4d2e5ed4d5da226417dafe0463acf",46.809459,-54.08,"d964586e64933d008f84b9451c2a97ed","Academic","BLKI","Black-legged Kittiwake","Rissa tridactyla","seabirds",NA,"Adult",NA,"Land",NA,NA,NA,NA,"1","1",NA,NA,NA,NA,NA,NA,"unique"
"MT-1197","Saint Vincent's Beach","NL","Newfoundland",2022,7,24,2022-07-24,"July","f972b4c520aacf3a94a2be36ad6bf0f4","3b17b840d93e6b36f02b5dc9be964b41",46.78933,-53.6371,"df5f3ae234ec98b8589a82d9bffd6182","Provincial","COMU","Common Murre","Uria aalge","seabirds",NA,NA,NA,"Land",NA,NA,NA,NA,"90","90",NA,NA,NA,NA,NA,NA,NA
"MT-1928","Croaker bridge, Port Union","NL","Newfoundland",2022,8,10,2022-08-10,"August","26ad6fa7654283b6805c01abb8f8a37e","919d3dc9f45807db742a592a0b973f47",48.4977,-53.08,"d964586e64933d008f84b9451c2a97ed","Public","COMU","Common Murre","Uria aalge","seabirds",NA,NA,NA,"Land",NA,NA,NA,"2","2","4",NA,NA,NA,NA,NA,NA,NA
"MT-1243","Newfoundland and Labrador, Trepassey, NL, CA","NL","Newfoundland",2022,7,26,2022-07-26,"July","dcd38ad1c86f14899bf53c98f54cc255","1b1f1fdf53e06c6ef4eb422178e04c31",46.7259167,-53.37313,"d19b251706156b4ec5b416339f8f7d5d","Citizen science platform","NOGA","Northern Gannet","Morus bassanus","seabirds",NA,NA,NA,"Land",NA,NA,NA,NA,"1","1",NA,"128035652",NA,NA,NA,NA,NA
"MT-3444","St. Vincents","NL","Newfoundland",2022,7,17,2022-07-17,"July","f980c8d92a92c8f4e24c249f18c7391f","1b1f1fdf53e06c6ef4eb422178e04c31",46.80076,-53.63737,"92c669e40748105782a0a350a4f78b3e","Academic","COMU","Common Murre","Uria aalge","seabirds",NA,NA,NA,NA,NA,NA,NA,"0","80","80","mostly murres, TBMU/COMU","TB073",NA,NA,NA,NA,NA
"MT-703","Cow Head","NL","Newfoundland",2022,7,18,2022-07-18,"July","68f9d0c45ebe6d799d61d6ce6418d644","f2aacf21fdf6c6e946456e0d952e890f",46.882758,-55.40073,"d964586e64933d008f84b9451c2a97ed","Public","NOGA","Northern Gannet","Morus bassanus","seabirds",NA,NA,NA,"Land",NA,NA,NA,NA,"5","5","4-6 dead gannets in Cow Head area.",NA,NA,NA,NA,NA,NA
"MT-694","Mall Bay","NL","Newfoundland",2022,7,18,2022-07-18,"July","f61059fe3d3bd9b62e5baa3f9bbe8a43","44008dc1901b6d799a6f3fe7b8340621",46.984869,-53.574783,"d964586e64933d008f84b9451c2a97ed","Public","COMU","Common Murre","Uria aalge","seabirds",NA,NA,NA,"Land",NA,NA,NA,NA,"4","4",NA,NA,NA,NA,NA,NA,NA
"MT-1252","Gull Island, Witless Bay","NL","Newfoundland",2022,7,28,2022-07-28,"July","00c42242cee8c3d2466cc4a5962967e2","1b1f1fdf53e06c6ef4eb422178e04c31",47.26258,-52.7731,"5181b2e6a6cd090d5823043ff5739aad","Academic","NOGA","Northern Gannet","Morus bassanus","seabirds",NA,NA,NA,"Water",NA,NA,NA,NA,"4","4",NA,NA,NA,NA,NA,NA,"unique"
"MT-3502","Point Lance Beach","NL","Newfoundland",2022,7,27,2022-07-27,"July","a78b42869e866cfc3f43d754f6022ff0","1b1f1fdf53e06c6ef4eb422178e04c31",46.81375,-54.08388,"92c669e40748105782a0a350a4f78b3e","Academic","COMU","Common Murre","Uria aalge","seabirds",NA,"Adult",NA,"Land",NA,NA,NA,"2","53","55","10 fresh, 15 breeding, 4 FLEDGLINGS, 2 FOUND ALIVE ON BEACH, MOST FOUND IN KELP AND BODIES WERE OLD, COMU","TB131",NA,NA,NA,NA,NA
"MT-1254","Off Tors Cove","NL","Newfoundland",2022,7,28,2022-07-28,"July","3d6ad725337e1a37c2066fdf0e197bda","1b1f1fdf53e06c6ef4eb422178e04c31",47.207594,-52.816272,"2f05ec00f6b4acd8dfffa81361aa339d","Public","BLKI","Black-legged Kittiwake","Rissa tridactyla","seabirds",NA,"Adult",NA,"Water",NA,NA,NA,"0","3","3",NA,NA,NA,NA,NA,NA,NA
"MT-735","Witless Bay","NL","Newfoundland",2022,7,20,2022-07-20,"July","bb79eed4994e5f505b033cfb5f530eb7","ac65fb4d9fea2eef8520b128e70e26c2",47.278878,-52.830932,"d964586e64933d008f84b9451c2a97ed","Public","COMU","Common Murre","Uria aalge","seabirds",NA,NA,NA,"Land",NA,NA,NA,NA,"10","10","2 separate reports for dead Common Murrs in Witless Bay near Gull island. Duncan Costello (691-2965) and Laura (682-7190). Reports of approximately 10 in the area",NA,NA,NA,NA,NA,NA
"MT-1256","Mobile Bay","NL","Newfoundland",2022,7,28,2022-07-28,"July","3d6ad725337e1a37c2066fdf0e197bda","1b1f1fdf53e06c6ef4eb422178e04c31",47.247007,-52.839185,"2f05ec00f6b4acd8dfffa81361aa339d","Public","ATPU","Atlantic Puffin","Fratercula arctica","seabirds",NA,"Adult","breeding","Water",NA,NA,NA,"0","7","7",NA,NA,NA,NA,NA,NA,NA
"MT-1258","Mobile Bay","NL","Newfoundland",2022,7,28,2022-07-28,"July","3d6ad725337e1a37c2066fdf0e197bda","1b1f1fdf53e06c6ef4eb422178e04c31",47.244767,-52.835573,"2f05ec00f6b4acd8dfffa81361aa339d","Public","EUST","European Starling","Sturnus vulgaris","landbirds",NA,NA,NA,"Water",NA,NA,NA,"0","1","1",NA,NA,NA,NA,NA,NA,NA
"MT-1141","Shoal Bay Beach, NL","NL","Newfoundland",2022,7,21,2022-07-21,"July","16c64f93e4f0fc045f407f562249d515","53a63cde7ccfaef4090db83f0f68e723",46.99642,-53.6164,"df5f3ae234ec98b8589a82d9bffd6182","Provincial","COMU","Common Murre","Uria aalge","seabirds",NA,NA,NA,"Land",NA,NA,NA,NA,"52","52",NA,NA,NA,NA,NA,NA,NA
"MT-2050","Coachman's Cove, NL","NL","Newfoundland",2022,8,25,2022-08-25,"August","e7ae91c3838aedb42bcca5fa7ed9f11d","1b1f1fdf53e06c6ef4eb422178e04c31",50.057939,-56.12,"d964586e64933d008f84b9451c2a97ed","Public","NOGA","Northern Gannet","Morus bassanus","seabirds",NA,NA,NA,"Land",NA,NA,NA,"0","1","1",NA,NA,NA,NA,NA,NA,NA
"MT-1261","Middle Cove","NL","Newfoundland",2022,7,29,2022-07-29,"July","a8d23fd661582d78c104692a7c1aadba","662b7b238307de8b728a48dc8f38ca12",47.64318,-52.7107,"e8c75a824612d4463b0cc2ecf3e5d71a","ECCC","RAZO","Razorbill","Alca torda","seabirds",NA,NA,NA,"Land",NA,NA,NA,"1",NA,"1","Observed as a sick bird in Middle Cove.",NA,NA,NA,NA,NA,NA
"MT-1274","Trepassey","NL","Newfoundland",2022,7,30,2022-07-30,"July","3fc98f1f565fa448f46b06766230b8a2","1b1f1fdf53e06c6ef4eb422178e04c31",46.73612,-53.3603,"d964586e64933d008f84b9451c2a97ed","Public","Unknown Bird","Unknown Bird","Aves (gen, sp)",NA,NA,NA,NA,"Land",NA,NA,NA,NA,"96","96","96 dead and dying gannets and  murres. Reported to Paddy's Pond",NA,NA,NA,NA,NA,NA
"MT-1275","Trepassey Lower Coast","NL","Newfoundland",2022,7,30,2022-07-30,"July","3fc98f1f565fa448f46b06766230b8a2","1b1f1fdf53e06c6ef4eb422178e04c31",46.73612,-53.3603,"d964586e64933d008f84b9451c2a97ed","Public","NOGA","Northern Gannet","Morus bassanus","seabirds",NA,NA,NA,"Land",NA,NA,NA,NA,"5","5","All reported to Paddy's Pond",NA,NA,NA,NA,NA,NA
"MT-1264","Greenspond","NL","Newfoundland",2022,7,29,2022-07-29,"July","bee44d45e57ff4888b1db4e5f6ed63bc","b0c8987e33d25c0e50c87ef5a7b5bacd",49.07472,-53.577,"e8c75a824612d4463b0cc2ecf3e5d71a","ECCC","NOGA","Northern Gannet","Morus bassanus","seabirds",NA,"Immature",NA,"Water",NA,NA,NA,NA,"1","1",NA,NA,NA,NA,NA,NA,"unique"
"MT-1265","Cape Freels","NL","Newfoundland",2022,7,29,2022-07-29,"July","cd6649ce7ce4e120eb2cc1f59a495ccc","1b1f1fdf53e06c6ef4eb422178e04c31",49.23333,-53.5167,"c3ac93b58929be459f749b79ec1a3086","NGO","NOGA","Northern Gannet","Morus bassanus","seabirds",NA,NA,NA,"Land",NA,NA,NA,NA,"1","1",NA,NA,NA,NA,NA,NA,"unique"
"MT-3426","St. Lawrence","NL","Newfoundland",2022,7,16,2022-07-16,"July","64680554c1e3548f4af2cec786a720ab","1b1f1fdf53e06c6ef4eb422178e04c31",46.88156,-55.40012,"92c669e40748105782a0a350a4f78b3e","Academic","COMU","Common Murre","Uria aalge","seabirds",NA,NA,NA,NA,NA,NA,NA,"0","50","50","conservative estimate, mostly murres, COMU/TBMU","TB055",NA,NA,NA,NA,NA
"MT-3521","Cape Freels Area","NL","Newfoundland",2022,7,30,2022-07-30,"July","5865ee78878e0668d4026de8bd9a7bb9","1b1f1fdf53e06c6ef4eb422178e04c31",49.23364,-53.51658,"92c669e40748105782a0a350a4f78b3e","Academic","COMU","Common Murre","Uria aalge","seabirds",NA,NA,NA,NA,NA,NA,NA,NA,NA,"50","Dead/dying, ""50+"", NOGA/COMU/TBMU","TB150",NA,NA,NA,NA,NA
"MT-1277","Trepassey Lower Coast","NL","Newfoundland",2022,7,30,2022-07-30,"July","3fc98f1f565fa448f46b06766230b8a2","1b1f1fdf53e06c6ef4eb422178e04c31",46.73612,-53.3603,"d964586e64933d008f84b9451c2a97ed","Public","BLKI","Black-legged Kittiwake","Rissa tridactyla","seabirds",NA,NA,NA,"Land",NA,NA,NA,NA,"1","1","All reported to Paddy's Pond",NA,NA,NA,NA,NA,NA
"MT-1270","Witless Bay","NL","Newfoundland",2022,7,29,2022-07-29,"July","3d6ad725337e1a37c2066fdf0e197bda","1b1f1fdf53e06c6ef4eb422178e04c31",47.279175,-52.820686,"2f05ec00f6b4acd8dfffa81361aa339d","Public","NOGA","Northern Gannet","Morus bassanus","seabirds",NA,"immature",NA,"Land",NA,NA,NA,"1","0","1",NA,NA,NA,NA,NA,NA,NA
"MT-1271","Witless Bay","NL","Newfoundland",2022,7,29,2022-07-29,"July","3d6ad725337e1a37c2066fdf0e197bda","1b1f1fdf53e06c6ef4eb422178e04c31",47.279175,-52.820686,"2f05ec00f6b4acd8dfffa81361aa339d","Public","BLKI","Black-legged Kittiwake","Rissa tridactyla","seabirds",NA,"Adult","breeding","Water",NA,NA,NA,"0","1","1",NA,NA,NA,NA,NA,NA,NA
"MT-1272","Lower Pond Beach, Witless Bay","NL","Newfoundland",2022,7,29,2022-07-29,"July","3d6ad725337e1a37c2066fdf0e197bda","1b1f1fdf53e06c6ef4eb422178e04c31",47.281054,-52.808395,"2f05ec00f6b4acd8dfffa81361aa339d","Public","BLKI","Black-legged Kittiwake","Rissa tridactyla","seabirds",NA,"Adult","breeding","Land",NA,NA,NA,"0","1","1",NA,NA,NA,NA,NA,NA,"unique"
"MT-1273","Lower Pond, Witless Bay","NL","Newfoundland",2022,7,29,2022-07-29,"July","3d6ad725337e1a37c2066fdf0e197bda","1b1f1fdf53e06c6ef4eb422178e04c31",47.281753,-52.812061,"2f05ec00f6b4acd8dfffa81361aa339d","Public","BLKI","Black-legged Kittiwake","Rissa tridactyla","seabirds",NA,"Adult","breeding","Land",NA,NA,NA,"1","1","2",NA,NA,NA,NA,NA,NA,"unique"
"MT-1287","Portugal Cove South","NL","Newfoundland",2022,7,31,2022-07-31,"July","3fc98f1f565fa448f46b06766230b8a2","1b1f1fdf53e06c6ef4eb422178e04c31",46.71414,-53.2547,"d964586e64933d008f84b9451c2a97ed","Public","NOGA","Northern Gannet","Morus bassanus","seabirds",NA,"Adult",NA,"Land",NA,NA,NA,NA,"11","11","Adult; reported to Paddy's Pond",NA,NA,NA,NA,NA,NA
"MT-1276","Trepassey Lower Coast","NL","Newfoundland",2022,7,30,2022-07-30,"July","3fc98f1f565fa448f46b06766230b8a2","1b1f1fdf53e06c6ef4eb422178e04c31",46.73612,-53.3603,"d964586e64933d008f84b9451c2a97ed","Public","COMU","Common Murre","Uria aalge","seabirds",NA,"Adult",NA,"Land",NA,NA,NA,NA,"15","15","2 murre chicks. Reported to Paddy's Pond",NA,NA,NA,NA,NA,NA
"MT-1288","Portugal Cove South","NL","Newfoundland",2022,7,31,2022-07-31,"July","3fc98f1f565fa448f46b06766230b8a2","1b1f1fdf53e06c6ef4eb422178e04c31",46.71414,-53.2547,"d964586e64933d008f84b9451c2a97ed","Public","COMU","Common Murre","Uria aalge","seabirds",NA,NA,NA,"Land",NA,NA,NA,NA,"9","9","All reported to Paddy's Pond",NA,NA,NA,NA,NA,NA
"MT-6128","Trepassey Lower Coast","NL","Newfoundland",2022,7,30,2022-07-30,"July","3fc98f1f565fa448f46b06766230b8a2","1b1f1fdf53e06c6ef4eb422178e04c31",46.73612,-53.3603,"d964586e64933d008f84b9451c2a97ed","Public","COMU","Common Murre","Uria aalge","seabirds",NA,"Chick",NA,"Land",NA,NA,NA,NA,"2","2","2 murre chicks. Reported to Paddy's Pond",NA,NA,NA,NA,NA,NA
"MT-1286","Drook Cove, NL","NL","Newfoundland",2022,7,31,2022-07-31,"July","3fc98f1f565fa448f46b06766230b8a2","1b1f1fdf53e06c6ef4eb422178e04c31",46.67028,-53.2464,"d964586e64933d008f84b9451c2a97ed","Public","COMU","Common Murre","Uria aalge","seabirds",NA,NA,NA,"Land",NA,NA,NA,NA,"1","1","All reported to Paddy's Pond",NA,NA,NA,NA,NA,NA
"MT-739","Trepassey","NL","Newfoundland",2022,7,20,2022-07-20,"July","3fc98f1f565fa448f46b06766230b8a2","d4990d862f4b276715cf40ae885322e8",46.726162,-53.368065,"d964586e64933d008f84b9451c2a97ed","Public","NOGA","Northern Gannet","Morus bassanus","seabirds",NA,NA,NA,"Land",NA,NA,NA,NA,"5","5",NA,NA,NA,NA,NA,NA,NA
"MT-1151","St. Joseph's","NL","Newfoundland",2022,7,22,2022-07-22,"July","b0417700fae9144319e677dd08276ffc","75e4f6ba278754670ffadc45869ad882",47.11862,-53.5097,"d964586e64933d008f84b9451c2a97ed","Public","Unknown Loon","Unknown Loon","Gaviidae sp.","loons",NA,NA,NA,"Land",NA,NA,NA,NA,"2","2",NA,NA,NA,NA,NA,NA,"unique"
"MT-3918","Lumsden Wharf","NL","Newfoundland",2022,7,30,2022-07-30,"July","c79d739b0f42339e010b65a6b24332d5","1b1f1fdf53e06c6ef4eb422178e04c31",49.29494,-53.599,"d964586e64933d008f84b9451c2a97ed","Public","NOGA","Northern Gannet","Morus bassanus","seabirds",NA,NA,NA,"Water",NA,NA,NA,NA,"1","1","seen while traversing between the lumsden wharf and Gull island area",NA,NA,NA,NA,NA,NA
"MT-3916","Musgrave Harbour Wharf","NL","Newfoundland",2022,7,29,2022-07-29,"July","c79d739b0f42339e010b65a6b24332d5","1b1f1fdf53e06c6ef4eb422178e04c31",49.45189,-53.9595,"d964586e64933d008f84b9451c2a97ed","Public","COMU","Common Murre","Uria aalge","seabirds",NA,NA,NA,"Water",NA,NA,NA,"1",NA,"1","Spinning slowly, occassionally head lolling",NA,NA,NA,NA,NA,NA
"MT-3919","Lumsden Wharf","NL","Newfoundland",2022,7,30,2022-07-30,"July","c79d739b0f42339e010b65a6b24332d5","1b1f1fdf53e06c6ef4eb422178e04c31",49.29494,-53.599,"d964586e64933d008f84b9451c2a97ed","Public","COMU","Common Murre","Uria aalge","seabirds",NA,NA,NA,"Water",NA,NA,NA,NA,"1","1","seen while traversing between the lumsden wharf and Gull island area",NA,NA,NA,NA,NA,NA
"MT-3757","St Lawrence Beach","NL","Newfoundland",2022,7,27,2022-07-27,"July","107660596d3ac9ba61c8cf88301ba9e2","1b1f1fdf53e06c6ef4eb422178e04c31",46.92517,-55.3952,"df5f3ae234ec98b8589a82d9bffd6182","Provincial","COMU","Common Murre","Uria aalge","seabirds",NA,NA,NA,"Land",NA,NA,NA,NA,"40","40","roughly 40",NA,NA,NA,NA,NA,NA
"MT-262","On water off Cape St. Mary's","NL","Newfoundland",2022,6,5,2022-06-05,"June","5228659c6dc413e8baf6200179e867ca","1b1f1fdf53e06c6ef4eb422178e04c31",46.82,-54.19,"d964586e64933d008f84b9451c2a97ed","Public","NOGA","Northern Gannet","Morus bassanus","seabirds",NA,NA,NA,"Land",NA,NA,NA,NA,"4","4","Observation was reported to Bill Montevecchi who also coordinated carcass retrieval; tested positive",NA,NA,NA,NA,NA,NA
"MT-3935","Point La Haye","NL","Newfoundland",2022,7,19,2022-07-19,"July","ad526976507e7d621be50356d46ac670","1b1f1fdf53e06c6ef4eb422178e04c31",46.89214,-53.5977,"df5f3ae234ec98b8589a82d9bffd6182","Provincial","COMU","Common Murre","Uria aalge","seabirds",NA,NA,NA,"Land",NA,NA,NA,NA,"40","40",NA,NA,NA,NA,NA,NA,"unique"
"MT-331","Point Lance Beach (whole beach surveyed)","NL","Newfoundland",2022,7,17,2022-07-17,"July","d8feb605214d3917375dcacc7a21acc7","4ff103aff54b9b3bfad1407c9cd6fcea",46.809459,-54.08,"92c669e40748105782a0a350a4f78b3e","Academic","COMU","Common Murre","Uria aalge","seabirds",NA,"Adult","Breeding","Land",NA,NA,NA,NA,"37","37",NA,NA,NA,NA,NA,NA,"unique"
"MT-1290","Gill's Cove, Great Island","NL","Newfoundland",2022,7,31,2022-07-31,"July","3d6ad725337e1a37c2066fdf0e197bda","1b1f1fdf53e06c6ef4eb422178e04c31",47.19135,-52.812371,"2f05ec00f6b4acd8dfffa81361aa339d","Public","ATPU","Atlantic Puffin","Fratercula arctica","seabirds",NA,"Adult","breeding","Water",NA,NA,NA,"0","1","1",NA,NA,NA,NA,NA,NA,NA
"MT-1291","Gros Morne National Park, Division #9, Subdivision A, NL, CA","NL","Newfoundland",2022,8,1,2022-08-01,"August","52c8fd19ca2c012a4eae3ff00698211e","1b1f1fdf53e06c6ef4eb422178e04c31",49.6803133,-57.959525,"d19b251706156b4ec5b416339f8f7d5d","Citizen science platform","NOGA","Northern Gannet","Morus bassanus","seabirds",NA,NA,NA,"Land",NA,NA,NA,NA,"1","1",NA,"129755798",NA,NA,NA,NA,NA
"MT-1293","Great Island","NL","Newfoundland",2022,8,1,2022-08-01,"August","3d6ad725337e1a37c2066fdf0e197bda","1b1f1fdf53e06c6ef4eb422178e04c31",47.194698,-52.807418,"2f05ec00f6b4acd8dfffa81361aa339d","Public","NOGA","Northern Gannet","Morus bassanus","seabirds",NA,"Adult",NA,"Water",NA,NA,NA,"0","1","1",NA,NA,NA,NA,NA,NA,NA
"MT-1294","Great Island","NL","Newfoundland",2022,8,1,2022-08-01,"August","3d6ad725337e1a37c2066fdf0e197bda","1b1f1fdf53e06c6ef4eb422178e04c31",47.194698,-52.807418,"2f05ec00f6b4acd8dfffa81361aa339d","Public","BLKI","Black-legged Kittiwake","Rissa tridactyla","seabirds",NA,"Juvenile",NA,"Water",NA,NA,NA,"0","1","1",NA,NA,NA,NA,NA,NA,NA
"MT-1295","Off Tors Cove","NL","Newfoundland",2022,8,1,2022-08-01,"August","3d6ad725337e1a37c2066fdf0e197bda","1b1f1fdf53e06c6ef4eb422178e04c31",47.207594,-52.816272,"2f05ec00f6b4acd8dfffa81361aa339d","Public","GBBG","Great Black-backed Gull","Larus marinus","seabirds",NA,"Juvenile",NA,"Water",NA,NA,NA,"0","1","1",NA,NA,NA,NA,NA,NA,NA
"MT-1296","Off Tors Cove","NL","Newfoundland",2022,8,1,2022-08-01,"August","3d6ad725337e1a37c2066fdf0e197bda","1b1f1fdf53e06c6ef4eb422178e04c31",47.207594,-52.816272,"2f05ec00f6b4acd8dfffa81361aa339d","Public","BLKI","Black-legged Kittiwake","Rissa tridactyla","seabirds",NA,"Adult","breeding","Water",NA,NA,NA,"0","1","1",NA,NA,NA,NA,NA,NA,NA
"MT-1783","St Vincent Beach Area","NL","Newfoundland",2022,8,2,2022-08-02,"August","6b46d1b4b805f6ef7e5ae04819cecf56","116c34945bbd93407865b437f91e9d81",46.8003,-53.64,"d964586e64933d008f84b9451c2a97ed","CWHC","Unknown Bird","Unknown Bird","Aves (gen, sp)",NA,NA,NA,NA,"Land",NA,NA,NA,NA,"30","30","Approximately 30; may be a dublicate of a later count and submission in the area sent by Kirsten Spray. Also, possibly sent to the Dashboard.",NA,NA,NA,NA,NA,NA
"MT-1785","Mobile Bay","NL","Newfoundland",2022,8,2,2022-08-02,"August","3d6ad725337e1a37c2066fdf0e197bda","1b1f1fdf53e06c6ef4eb422178e04c31",47.2420028,-52.8246709,"2f05ec00f6b4acd8dfffa81361aa339d","Public","NOGA","Northern Gannet","Morus bassanus","seabirds",NA,"Adult",NA,"Water",NA,NA,NA,"1","1","2",NA,NA,NA,NA,NA,NA,NA
"MT-1801","Mobile Bay","NL","Newfoundland",2022,8,2,2022-08-02,"August","3d6ad725337e1a37c2066fdf0e197bda","1b1f1fdf53e06c6ef4eb422178e04c31",47.247007,-52.839185,"2f05ec00f6b4acd8dfffa81361aa339d","Public","ATPU","Atlantic Puffin","Fratercula arctica","seabirds",NA,"Adult","breeding","Land",NA,NA,NA,"0","1","1",NA,NA,NA,NA,NA,NA,NA
"MT-1812","Off Tors Cove","NL","Newfoundland",2022,8,2,2022-08-02,"August","3d6ad725337e1a37c2066fdf0e197bda","1b1f1fdf53e06c6ef4eb422178e04c31",47.207594,-52.816272,"2f05ec00f6b4acd8dfffa81361aa339d","Public","BLKI","Black-legged Kittiwake","Rissa tridactyla","seabirds",NA,"Adult",NA,"Water",NA,NA,NA,"0","1","1",NA,NA,NA,NA,NA,NA,NA
"MT-265","Off Lourdes Beach","NL","Newfoundland",2022,6,8,2022-06-08,"June","36427ab8e53a387ff44df4ffcaf1f7df","1b1f1fdf53e06c6ef4eb422178e04c31",48.66,-59,"d964586e64933d008f84b9451c2a97ed","Public","NOGA","Northern Gannet","Morus bassanus","seabirds",NA,NA,NA,"Water",NA,NA,NA,"200",NA,"200","Reported to Gerard Carroll,  who reported it to Chuck Porter",NA,NA,NA,NA,NA,"unique"
"MT-1818","Terre-Neuve-et-Labrador, Ferryland, NL, CA","NL","Newfoundland",2022,8,3,2022-08-03,"August","afcf374092438c0f9e799bd9e84decfc","1b1f1fdf53e06c6ef4eb422178e04c31",47.0283661,-52.8891144,"d19b251706156b4ec5b416339f8f7d5d","Citizen science platform","NOGA","Northern Gannet","Morus bassanus","seabirds",NA,NA,NA,"Land",NA,NA,NA,NA,"1","1",NA,"129312570",NA,NA,NA,NA,NA
"MT-1820","Gros Morne National Park, Division #9, Subdivision A, NL, CA","NL","Newfoundland",2022,8,3,2022-08-03,"August","fdf1ed5a672f30184d4f6502c4e4eed9","1b1f1fdf53e06c6ef4eb422178e04c31",49.6829833,-57.9646117,"d19b251706156b4ec5b416339f8f7d5d","Citizen science platform","NOGA","Northern Gannet","Morus bassanus","seabirds",NA,NA,NA,"Land",NA,NA,NA,NA,"1","1",NA,"129870851",NA,NA,NA,NA,NA
"MT-1821","Off Tors Cove","NL","Newfoundland",2022,8,3,2022-08-03,"August","3d6ad725337e1a37c2066fdf0e197bda","1b1f1fdf53e06c6ef4eb422178e04c31",47.207594,-52.816272,"2f05ec00f6b4acd8dfffa81361aa339d","Public","BLKI","Black-legged Kittiwake","Rissa tridactyla","seabirds",NA,NA,NA,"Water",NA,NA,NA,"0","1","1",NA,NA,NA,NA,NA,NA,NA
"MT-1822","Off Tors Cove","NL","Newfoundland",2022,8,3,2022-08-03,"August","3d6ad725337e1a37c2066fdf0e197bda","1b1f1fdf53e06c6ef4eb422178e04c31",47.207594,-52.816272,"2f05ec00f6b4acd8dfffa81361aa339d","Public","HERG","Herring Gull","Larus argentatus","seabirds",NA,"Juvenile",NA,"Water",NA,NA,NA,"1","0","1",NA,NA,NA,NA,NA,NA,NA
"MT-1826","Deadman's Bay","NL","Newfoundland",2022,8,4,2022-08-04,"August","1d7244e4b14ba59e6f540275f6f3a2e5","abe4d2e5ed4d5da226417dafe0463acf",49.33492,-53.7,"d964586e64933d008f84b9451c2a97ed","Academic","NOGA","Northern Gannet","Morus bassanus","seabirds",NA,NA,NA,"Land",NA,NA,NA,NA,"12","12",NA,NA,NA,NA,NA,NA,NA
"MT-3914","Placentia Bay","NL","Newfoundland",2022,7,27,2022-07-27,"July","97c6e1cfce12481f20a74c07f01482fa","1b1f1fdf53e06c6ef4eb422178e04c31",47.10301,-54.1859,"d964586e64933d008f84b9451c2a97ed","Public","NOGA","Northern Gannet","Morus bassanus","seabirds",NA,NA,NA,"Water",NA,NA,NA,NA,"2","2","Cape St Mary's",NA,NA,NA,NA,NA,NA
"MT-3915","Placentia Bay","NL","Newfoundland",2022,7,27,2022-07-27,"July","97c6e1cfce12481f20a74c07f01482fa","1b1f1fdf53e06c6ef4eb422178e04c31",47.10301,-54.1859,"d964586e64933d008f84b9451c2a97ed","Public","COMU","Common Murre","Uria aalge","seabirds",NA,NA,NA,"Water",NA,NA,NA,NA,"2","2","Cape St Mary's",NA,NA,NA,NA,NA,NA
"MT-1900","Cape Bonavista Lighthouse","NL","Newfoundland",2022,8,4,2022-08-04,"August","26ad6fa7654283b6805c01abb8f8a37e","919d3dc9f45807db742a592a0b973f47",48.7014,-53.09,"d135938f7c4fe8cfe1cec64a9779e6d6","CWHC","ATPU","Atlantic Puffin","Fratercula arctica","seabirds",NA,NA,NA,"Water",NA,NA,NA,NA,"50","50","50+",NA,NA,NA,NA,NA,NA
"MT-1901","Mobile Bay","NL","Newfoundland",2022,8,4,2022-08-04,"August","3d6ad725337e1a37c2066fdf0e197bda","1b1f1fdf53e06c6ef4eb422178e04c31",47.2420028,-52.8246709,"2f05ec00f6b4acd8dfffa81361aa339d","Public","BLKI","Black-legged Kittiwake","Rissa tridactyla","seabirds",NA,"Adult","breeding","Water",NA,NA,NA,"0","1","1",NA,NA,NA,NA,NA,NA,NA
"MT-1902","Off Tors Cove","NL","Newfoundland",2022,8,4,2022-08-04,"August","3d6ad725337e1a37c2066fdf0e197bda","1b1f1fdf53e06c6ef4eb422178e04c31",47.207594,-52.816272,"2f05ec00f6b4acd8dfffa81361aa339d","Public","ATPU","Atlantic Puffin","Fratercula arctica","seabirds",NA,"Juvenile",NA,"Water",NA,NA,NA,"0","1","1",NA,NA,NA,NA,NA,NA,NA
"MT-1909","Greenspond, NL","NL","Newfoundland",2022,8,5,2022-08-05,"August","bee44d45e57ff4888b1db4e5f6ed63bc","b0c8987e33d25c0e50c87ef5a7b5bacd",49.07472,-53.577,"e8c75a824612d4463b0cc2ecf3e5d71a","ECCC","NOGA","Northern Gannet","Morus bassanus","seabirds",NA,NA,NA,"Land",NA,NA,NA,"1",NA,"1",NA,NA,NA,NA,NA,NA,"unique"
"MT-191","Winterhouse","NL","Newfoundland",2022,5,10,2022-05-10,"May","5940a8743bf85b50d68b55949a58b839","1b1f1fdf53e06c6ef4eb422178e04c31",48.69,-58.92,"1394ea661b639e2226e34b2ccff54a96","DFO","NOGA","Northern Gannet","Morus bassanus","seabirds",NA,NA,NA,"Land",NA,NA,NA,"2","4","6","Reported to CWS by WED",NA,NA,NA,NA,NA,NA
"MT-1910","Greenspond, NL","NL","Newfoundland",2022,8,5,2022-08-05,"August","bee44d45e57ff4888b1db4e5f6ed63bc","b0c8987e33d25c0e50c87ef5a7b5bacd",49.07472,-53.577,"e8c75a824612d4463b0cc2ecf3e5d71a","ECCC","NOGA","Northern Gannet","Morus bassanus","seabirds",NA,NA,NA,"Land",NA,NA,NA,NA,"1","1",NA,NA,NA,NA,NA,NA,"unique"
"MT-1911","Salt Cove (St. Lawrence), NL","NL","Newfoundland",2022,8,5,2022-08-05,"August","cec726162e37ee56026d5da164cab465","43b84b50c000f89400f967dd78b2fa6e",46.87839,-55.4204,"6949916bba5986cdcc7216b3d684383f","Provincial","NOGA","Northern Gannet","Morus bassanus","seabirds",NA,NA,NA,"Land",NA,NA,NA,NA,"2","2","Location approximate: Salt Cove beach, Shoal Beach or Fox Cove beach",NA,NA,NA,NA,NA,NA
"MT-1912","Salt Cove (St. Lawrence), NL","NL","Newfoundland",2022,8,5,2022-08-05,"August","cec726162e37ee56026d5da164cab465","43b84b50c000f89400f967dd78b2fa6e",46.87839,-55.4204,"6949916bba5986cdcc7216b3d684383f","Provincial","GRSH","Great Shearwater","Ardenna gravis","seabirds",NA,NA,NA,"Land",NA,NA,NA,NA,"1","1","Location approximate: Salt Cove beach, Shoal Beach or Fox Cove beach",NA,NA,NA,NA,NA,NA
"MT-1913","Salt Cove (St. Lawrence), NL","NL","Newfoundland",2022,8,5,2022-08-05,"August","cec726162e37ee56026d5da164cab465","43b84b50c000f89400f967dd78b2fa6e",46.87839,-55.4204,"6949916bba5986cdcc7216b3d684383f","Provincial","Unknown Bird","Unknown Bird","Aves (gen, sp)",NA,NA,NA,NA,"Land",NA,NA,NA,NA,"60","60","mostly murres, but also included a number of razorbills and puffins, 2 gannets and 1 greater shearwater",NA,NA,NA,NA,NA,NA
"MT-1914","Division No. 1, CA-NF, CA","NL","Newfoundland",2022,8,5,2022-08-05,"August","afcf374092438c0f9e799bd9e84decfc","1b1f1fdf53e06c6ef4eb422178e04c31",46.8098526,-54.0878339,"d19b251706156b4ec5b416339f8f7d5d","Citizen science platform","NOGA","Northern Gannet","Morus bassanus","seabirds",NA,NA,NA,"Land",NA,NA,NA,NA,"1","1",NA,"129595940",NA,NA,NA,NA,NA
"MT-1915","Off Tors Cove","NL","Newfoundland",2022,8,5,2022-08-05,"August","3d6ad725337e1a37c2066fdf0e197bda","1b1f1fdf53e06c6ef4eb422178e04c31",47.207594,-52.816272,"2f05ec00f6b4acd8dfffa81361aa339d","Public","ATPU","Atlantic Puffin","Fratercula arctica","seabirds",NA,"Adult","breeding","Water",NA,NA,NA,"0","1","1",NA,NA,NA,NA,NA,NA,NA
"MT-1916","Off Tors Cove","NL","Newfoundland",2022,8,6,2022-08-06,"August","3d6ad725337e1a37c2066fdf0e197bda","1b1f1fdf53e06c6ef4eb422178e04c31",47.207594,-52.816272,"2f05ec00f6b4acd8dfffa81361aa339d","Public","BLKI","Black-legged Kittiwake","Rissa tridactyla","seabirds",NA,"Juvenile",NA,"Water",NA,NA,NA,"0","1","1",NA,NA,NA,NA,NA,NA,NA
"MT-1918","Off Tors Cove","NL","Newfoundland",2022,8,7,2022-08-07,"August","3d6ad725337e1a37c2066fdf0e197bda","1b1f1fdf53e06c6ef4eb422178e04c31",47.207594,-52.816272,"2f05ec00f6b4acd8dfffa81361aa339d","Public","BLKI","Black-legged Kittiwake","Rissa tridactyla","seabirds",NA,"Juvenile",NA,"Water",NA,NA,NA,"0","1","1",NA,NA,NA,NA,NA,NA,NA
"MT-1259","Mobile Bay, Herring Cove","NL","Newfoundland",2022,7,28,2022-07-28,"July","31e33bdea3c5c7c9d3cfb8819ab62204","1b1f1fdf53e06c6ef4eb422178e04c31",47.245739,-52.820085,"d964586e64933d008f84b9451c2a97ed","Public","COMU","Common Murre","Uria aalge","seabirds",NA,"Adult","breeding","Water",NA,NA,NA,"0","7","7","Photo File Name: Dead murre Geoff Smith",NA,NA,NA,NA,NA,"unique"
"MT-1958","Warrens Island","NL","Newfoundland",2022,8,13,2022-08-13,"August","124d80d11af4b4671c316673502dbba4","1b1f1fdf53e06c6ef4eb422178e04c31",51.610823,-55.54,"d964586e64933d008f84b9451c2a97ed","Public","Unknown Bird","Unknown Bird","Aves (gen, sp)",NA,NA,NA,NA,"Land",NA,NA,NA,NA,"9","9","Location approximate: an island beach in Sacred Bay",NA,NA,NA,NA,NA,NA
"MT-1959","Warrens Island","NL","Newfoundland",2022,8,13,2022-08-13,"August","124d80d11af4b4671c316673502dbba4","1b1f1fdf53e06c6ef4eb422178e04c31",51.610823,-55.54,"d964586e64933d008f84b9451c2a97ed","Public","GBBG","Great Black-backed Gull","Larus marinus","seabirds",NA,NA,NA,"Land",NA,NA,NA,NA,"2","2","1 adult 1 juvenile; Location approximate: an island beach in Sacred Bay",NA,NA,NA,NA,NA,NA
"MT-1927","Mobil, main road","NL","Newfoundland",2022,8,9,2022-08-09,"August","26ad6fa7654283b6805c01abb8f8a37e","919d3dc9f45807db742a592a0b973f47",47.2449,-52.84,"d135938f7c4fe8cfe1cec64a9779e6d6","CWHC","NOGA","Northern Gannet","Morus bassanus","seabirds",NA,NA,NA,"Land",NA,NA,NA,"1",NA,"1",NA,NA,NA,NA,NA,NA,NA
"MT-1929","Lower Pond, Witless Bay, NL","NL","Newfoundland",2022,8,10,2022-08-10,"August","bee44d45e57ff4888b1db4e5f6ed63bc","b0c8987e33d25c0e50c87ef5a7b5bacd",47.28424,-52.8138,"e8c75a824612d4463b0cc2ecf3e5d71a","ECCC","BLKI","Black-legged Kittiwake","Rissa tridactyla","seabirds",NA,NA,NA,"Land",NA,NA,NA,NA,"1","1",NA,NA,NA,NA,NA,NA,NA
"MT-1930","Bears Cove, Witless Bay","NL","Newfoundland",2022,8,10,2022-08-10,"August","3d6ad725337e1a37c2066fdf0e197bda","1b1f1fdf53e06c6ef4eb422178e04c31",47.281888,-52.806622,"2f05ec00f6b4acd8dfffa81361aa339d","Public","AMCR","American Crow","Corvus brachyrhynchos","landbirds",NA,NA,NA,"Land",NA,NA,NA,"1","0","1",NA,NA,NA,NA,NA,NA,NA
"MT-1931","Port Rexton","NL","Newfoundland",2022,8,11,2022-08-11,"August","196b829c0ec1480addf954f3ee9dcd02","116c34945bbd93407865b437f91e9d81",48.3895682,-53.31,"456ff75bb13b0e2f2394a61d529ac459","Academic","NOGA","Northern Gannet","Morus bassanus","seabirds",NA,NA,NA,"Land",NA,NA,NA,"1","2","3",NA,NA,NA,NA,NA,NA,NA
"MT-1960","Warrens Island","NL","Newfoundland",2022,8,13,2022-08-13,"August","124d80d11af4b4671c316673502dbba4","1b1f1fdf53e06c6ef4eb422178e04c31",51.610823,-55.54,"d964586e64933d008f84b9451c2a97ed","Public","COEI","Common Eider","Somateria mollissima","seabirds",NA,NA,NA,"Land",NA,NA,NA,NA,"1","1","Adult. Location approximate: an island beach in Sacred Bay",NA,NA,NA,NA,NA,NA
"MT-296","Point La Haye","NL","Newfoundland",2022,7,14,2022-07-14,"July","890ea51d896482d8616a31cd5e67e598","1b1f1fdf53e06c6ef4eb422178e04c31",46.892143,-53.597749,"d964586e64933d008f84b9451c2a97ed","Public","COMU","Common Murre","Uria aalge","seabirds",NA,NA,NA,"Land",NA,NA,NA,"10","10","20","A mix of live and dead birds, primarily COMU based on Sabina's correspondence.",NA,NA,NA,NA,NA,"unique"
"MT-1935","Newfoundland and Labrador, Lord's Cove, NL, CA","NL","Newfoundland",2022,8,11,2022-08-11,"August","dae2133c3575d7900ea6380b351b5deb","1b1f1fdf53e06c6ef4eb422178e04c31",46.8979457,-55.619845,"d19b251706156b4ec5b416339f8f7d5d","Citizen science platform","NOGA","Northern Gannet","Morus bassanus","seabirds",NA,NA,NA,"Land",NA,NA,NA,NA,"1","1",NA,"130796802",NA,NA,NA,NA,NA
"MT-687","Point la Haye","NL","Newfoundland",2022,7,18,2022-07-18,"July","9b5d3fd9688f8322dd29d18c527fb3e4","da8420948e26eaa6cdbb26f096ac1c88",46.892143,-53.597749,"d964586e64933d008f84b9451c2a97ed","Public","Unknown Bird","Unknown Bird","Aves (gen, sp)",NA,NA,NA,NA,"Land",NA,NA,NA,NA,"25","25",NA,NA,NA,NA,NA,NA,NA
"MT-1239","North Harbour St Mary's Bay","NL","Newfoundland",2022,7,26,2022-07-26,"July","803d206fb99ddcf9914b9f89c72f0549","abe4d2e5ed4d5da226417dafe0463acf",46.83341,-53.7482,"d964586e64933d008f84b9451c2a97ed","Public","RAZO","Razorbill","Alca torda","seabirds",NA,NA,NA,"Land",NA,NA,NA,NA,"1","1",NA,NA,NA,NA,NA,NA,NA
"MT-1238","North Harbour St Mary's Bay","NL","Newfoundland",2022,7,26,2022-07-26,"July","803d206fb99ddcf9914b9f89c72f0549","abe4d2e5ed4d5da226417dafe0463acf",46.83341,-53.7482,"d964586e64933d008f84b9451c2a97ed","Public","COMU","Common Murre","Uria aalge","seabirds",NA,NA,NA,"Land",NA,NA,NA,NA,"1","1",NA,NA,NA,NA,NA,NA,NA
"MT-1939","fish plant, Witless Bay, NL","NL","Newfoundland",2022,8,12,2022-08-12,"August","bee44d45e57ff4888b1db4e5f6ed63bc","b0c8987e33d25c0e50c87ef5a7b5bacd",47.28267,-52.8325,"e8c75a824612d4463b0cc2ecf3e5d71a","ECCC","NOGA","Northern Gannet","Morus bassanus","seabirds",NA,NA,NA,"Land",NA,NA,NA,NA,"1","1",NA,NA,NA,NA,NA,NA,NA
"MT-1940","Lockston","NL","Newfoundland",2022,8,12,2022-08-12,"August","346b4ce1b1e282cf01cc8bb9f42909cf","22cbb288c0d8999631491f9fca46294c",48.39701,-53.3751,"e8c75a824612d4463b0cc2ecf3e5d71a","ECCC","NOGA","Northern Gannet","Morus bassanus","seabirds",NA,NA,NA,"Land",NA,NA,NA,"1",NA,"1",NA,NA,NA,NA,NA,NA,NA
"MT-3557","Point Lance","NL","Newfoundland",2022,8,1,2022-08-01,"August","5e5bee6e3227c751f1e2d56344f8ee40","1b1f1fdf53e06c6ef4eb422178e04c31",46.81375,-54.08388,"92c669e40748105782a0a350a4f78b3e","Academic","COMU","Common Murre","Uria aalge","seabirds",NA,NA,NA,"Land",NA,NA,NA,"0","135","135",NA,"TB190",NA,NA,NA,NA,NA
"MT-1942","Division No. 1, CA-NF, CA","NL","Newfoundland",2022,8,12,2022-08-12,"August","7c6c85902755509140918d207d63d076","1b1f1fdf53e06c6ef4eb422178e04c31",47.3254187,-53.0075716,"d19b251706156b4ec5b416339f8f7d5d","Citizen science platform","NOGA","Northern Gannet","Morus bassanus","seabirds",NA,NA,NA,"Land",NA,NA,NA,NA,"1","1",NA,"130729136",NA,NA,NA,NA,NA
"MT-1943","Newfoundland and Labrador, Division #2, Subdivision G, NL, CA","NL","Newfoundland",2022,8,12,2022-08-12,"August","dae2133c3575d7900ea6380b351b5deb","1b1f1fdf53e06c6ef4eb422178e04c31",46.9298025,-55.4826538,"d19b251706156b4ec5b416339f8f7d5d","Citizen science platform","NOGA","Northern Gannet","Morus bassanus","seabirds",NA,NA,NA,"Land",NA,NA,NA,NA,"1","1",NA,"130796397",NA,NA,NA,NA,NA
"MT-5103","Point Lance Beach","NL","Newfoundland",2022,8,8,2022-08-08,"August","a78b42869e866cfc3f43d754f6022ff0","1b1f1fdf53e06c6ef4eb422178e04c31",46.8105,-54.0877976,"92c669e40748105782a0a350a4f78b3e","Academic","COMU","Common Murre","Uria aalge","seabirds",NA,"Adult",NA,"Land",NA,NA,NA,"0","130","130","12 fresh, 26 breeders. Some bodies may have been double counted from previous observations by Montevecchi lab at Point Lance Beach","TB381",NA,NA,NA,NA,NA
"MT-1946","Off Tors Cove","NL","Newfoundland",2022,8,12,2022-08-12,"August","3d6ad725337e1a37c2066fdf0e197bda","1b1f1fdf53e06c6ef4eb422178e04c31",47.207594,-52.816272,"2f05ec00f6b4acd8dfffa81361aa339d","Public","ATPU","Atlantic Puffin","Fratercula arctica","seabirds",NA,"Juvenile",NA,"Water",NA,NA,NA,"0","1","1",NA,NA,NA,NA,NA,NA,NA
"MT-1947","Off Tors Cove","NL","Newfoundland",2022,8,12,2022-08-12,"August","3d6ad725337e1a37c2066fdf0e197bda","1b1f1fdf53e06c6ef4eb422178e04c31",47.207594,-52.816272,"2f05ec00f6b4acd8dfffa81361aa339d","Public","Unknown Alcid (Alcidae sp.)","Unknown Alcid ","Alcidae sp.","seabirds",NA,NA,NA,"Water",NA,NA,NA,"0","3","3",NA,NA,NA,NA,NA,NA,NA
"MT-1948","Great Island","NL","Newfoundland",2022,8,12,2022-08-12,"August","3d6ad725337e1a37c2066fdf0e197bda","1b1f1fdf53e06c6ef4eb422178e04c31",47.194698,-52.807418,"2f05ec00f6b4acd8dfffa81361aa339d","Public","Unknown Alcid (Alcidae sp.)","Unknown Alcid ","Alcidae sp.","seabirds",NA,NA,NA,"Water",NA,NA,NA,"0","4","4",NA,NA,NA,NA,NA,NA,NA
"MT-1949","Great Island","NL","Newfoundland",2022,8,12,2022-08-12,"August","3d6ad725337e1a37c2066fdf0e197bda","1b1f1fdf53e06c6ef4eb422178e04c31",47.194698,-52.807418,"2f05ec00f6b4acd8dfffa81361aa339d","Public","NOGA","Northern Gannet","Morus bassanus","seabirds",NA,"Adult",NA,"Water",NA,NA,NA,"0","1","1",NA,NA,NA,NA,NA,NA,NA
"MT-1950","Mobile Bay","NL","Newfoundland",2022,8,12,2022-08-12,"August","3d6ad725337e1a37c2066fdf0e197bda","1b1f1fdf53e06c6ef4eb422178e04c31",47.240308,-52.823562,"2f05ec00f6b4acd8dfffa81361aa339d","Public","NOGA","Northern Gannet","Morus bassanus","seabirds",NA,"Adult",NA,"Water",NA,NA,NA,"0","1","1",NA,NA,NA,NA,NA,NA,NA
"MT-1951","Mobile Bay","NL","Newfoundland",2022,8,12,2022-08-12,"August","3d6ad725337e1a37c2066fdf0e197bda","1b1f1fdf53e06c6ef4eb422178e04c31",47.240308,-52.823562,"2f05ec00f6b4acd8dfffa81361aa339d","Public","HERG","Herring Gull","Larus argentatus","seabirds",NA,"Juvenile",NA,"Water",NA,NA,NA,"1","0","1",NA,NA,NA,NA,NA,NA,"unique"
"MT-1952","Mobile Bay","NL","Newfoundland",2022,8,12,2022-08-12,"August","3d6ad725337e1a37c2066fdf0e197bda","1b1f1fdf53e06c6ef4eb422178e04c31",47.240308,-52.823562,"2f05ec00f6b4acd8dfffa81361aa339d","Public","HERG","Herring Gull","Larus argentatus","seabirds",NA,"Adult",NA,"Water",NA,NA,NA,"0","1","1",NA,NA,NA,NA,NA,NA,"unique"
"MT-1953","Mobile Bay","NL","Newfoundland",2022,8,12,2022-08-12,"August","3d6ad725337e1a37c2066fdf0e197bda","1b1f1fdf53e06c6ef4eb422178e04c31",47.240308,-52.823562,"2f05ec00f6b4acd8dfffa81361aa339d","Public","BLKI","Black-legged Kittiwake","Rissa tridactyla","seabirds",NA,"Adult",NA,"Water",NA,NA,NA,"0","1","1",NA,NA,NA,NA,NA,NA,NA
"MT-1954","Mobile Bay","NL","Newfoundland",2022,8,12,2022-08-12,"August","3d6ad725337e1a37c2066fdf0e197bda","1b1f1fdf53e06c6ef4eb422178e04c31",47.247007,-52.839185,"2f05ec00f6b4acd8dfffa81361aa339d","Public","ATPU","Atlantic Puffin","Fratercula arctica","seabirds",NA,"Juvenile",NA,"Land",NA,NA,NA,"0","1","1",NA,NA,NA,NA,NA,NA,NA
"MT-1955","Mobile Bay","NL","Newfoundland",2022,8,12,2022-08-12,"August","3d6ad725337e1a37c2066fdf0e197bda","1b1f1fdf53e06c6ef4eb422178e04c31",47.247007,-52.839185,"2f05ec00f6b4acd8dfffa81361aa339d","Public","HERG","Herring Gull","Larus argentatus","seabirds",NA,"Juvenile",NA,"Land",NA,NA,NA,"0","1","1",NA,NA,NA,NA,NA,NA,NA
"MT-5094","Point Lance Beach","NL","Newfoundland",2022,8,4,2022-08-04,"August","a78b42869e866cfc3f43d754f6022ff0","1b1f1fdf53e06c6ef4eb422178e04c31",46.8105,-54.0877976,"92c669e40748105782a0a350a4f78b3e","Academic","COMU","Common Murre","Uria aalge","seabirds",NA,"Adult",NA,"Land",NA,NA,NA,"2","121","123","41 breeding, some bodies may have been double counted from previous observations by Montevecchi lab at Point Lance Beach","TB373",NA,NA,NA,NA,NA
"MT-1957","Mobile Bay","NL","Newfoundland",2022,8,12,2022-08-12,"August","3d6ad725337e1a37c2066fdf0e197bda","1b1f1fdf53e06c6ef4eb422178e04c31",47.247007,-52.839185,"2f05ec00f6b4acd8dfffa81361aa339d","Public","NOGA","Northern Gannet","Morus bassanus","seabirds",NA,"Adult",NA,"Land",NA,NA,NA,"0","1","1",NA,NA,NA,NA,NA,NA,NA
"MT-264","Lourdes Beach ","NL","Newfoundland",2022,6,8,2022-06-08,"June","b0ffdb4a29f21d4ed221a26bf75beae7","1b1f1fdf53e06c6ef4eb422178e04c31",48.66,-59,"d964586e64933d008f84b9451c2a97ed","Public","NOGA","Northern Gannet","Morus bassanus","seabirds",NA,NA,NA,"Land",NA,NA,NA,"10","1","11","Reported to Chuck Porter, NL DFFA",NA,NA,NA,NA,NA,"unique"
"MT-3742","Inner Gooseberry Island","NL","Newfoundland",2022,8,21,2022-08-21,"August","bef0c67fbba87f62a0890c4c3488f77d","230894a1db06bffeb2d97d81c6e9019d",48.880868,-53.642047,"d964586e64933d008f84b9451c2a97ed","Provincial","NOGA","Northern Gannet","Morus bassanus","seabirds",NA,NA,NA,"Land",NA,NA,NA,"0","10","10","We landed on Inner Gooseberry Island (Just outside St. Brendan’s) on Sunday August 21 and seen about 10 gannets in various states of decay/scavenging along the shore plus another other seabirds (~10) in the water slightly offshore also in advanced decay.",NA,NA,NA,NA,NA,NA
"MT-1964","Division No. 1, CA-NF, CA","NL","Newfoundland",2022,8,13,2022-08-13,"August","7c6c85902755509140918d207d63d076","1b1f1fdf53e06c6ef4eb422178e04c31",47.3624682,-53.1159213,"d19b251706156b4ec5b416339f8f7d5d","Citizen science platform","NOGA","Northern Gannet","Morus bassanus","seabirds",NA,NA,NA,"Land",NA,NA,NA,NA,"1","1",NA,"130727570",NA,NA,NA,NA,NA
"MT-3638","Portugal Cove South","NL","Newfoundland",2022,8,16,2022-08-16,"August","780beaa20cac0168a19d33959655b011","1b1f1fdf53e06c6ef4eb422178e04c31",46.71414,-53.25473,"92c669e40748105782a0a350a4f78b3e","Academic","COMU","Common Murre","Uria aalge","seabirds",NA,NA,NA,"Land",NA,NA,NA,"0","113","113","5 fresh,108 old, Wind light WSW foggy, smooth low tide, COMU/TBMU","TB273",NA,NA,NA,NA,NA
"MT-1966","Bears Cove, Witless Bay","NL","Newfoundland",2022,8,13,2022-08-13,"August","3d6ad725337e1a37c2066fdf0e197bda","1b1f1fdf53e06c6ef4eb422178e04c31",47.281888,-52.806622,"2f05ec00f6b4acd8dfffa81361aa339d","Public","HERG","Herring Gull","Larus argentatus","seabirds",NA,"Adult",NA,"Land",NA,NA,NA,"0","1","1",NA,NA,NA,NA,NA,NA,NA
"MT-5536",NA,"NL","Newfoundland",2022,8,17,2022-08-17,"August","bcbac102f4bf67df61b53d34075f8759","599124bd3538e2f52d29f6d42a4998c0",49.238,-53.4842,"bcddf020443ed44b91613939ad94c5dc","CWHC","COMU","Common Murre","Uria aalge","seabirds",NA,NA,NA,NA,NA,NA,NA,"2","100","102","Not Swabbed, Observed while birding along the beaches at Cape Freels, Newfoundland,  variety of dead birds washed up on shore.
100+ common murres, one near death
50+ northern gannets
5 dovekies
1 sooty shearwater
1 herring gull (juvenile)","CWHC.218169.A",NA,NA,NA,NA,NA
"MT-5077","Bonavista/Trinity-Clarenville","NL","Newfoundland",2022,8,17,2022-08-17,"August","69cef4bb595c8c4328ef71b87a7f8cce","69cef4bb595c8c4328ef71b87a7f8cce",49.24179,-53.4841,"f414a8cd50b41d7450e730acf0b75aba","Citizen science platform","COMU","Common Murre","Uria aalge","seabirds",NA,NA,NA,"Land",NA,NA,NA,"1","100","101","On the beach, obviously dying, at least 100 dead all along the full length of the beach","S117095338",NA,NA,NA,NA,NA
"MT-1969","Great Island","NL","Newfoundland",2022,8,13,2022-08-13,"August","3d6ad725337e1a37c2066fdf0e197bda","1b1f1fdf53e06c6ef4eb422178e04c31",47.194698,-52.807418,"2f05ec00f6b4acd8dfffa81361aa339d","Public","ATPU","Atlantic Puffin","Fratercula arctica","seabirds",NA,"Adult","breeding","Water",NA,NA,NA,"0","1","1",NA,NA,NA,NA,NA,NA,"unique"
"MT-1970","Great Island","NL","Newfoundland",2022,8,13,2022-08-13,"August","3d6ad725337e1a37c2066fdf0e197bda","1b1f1fdf53e06c6ef4eb422178e04c31",47.194698,-52.807418,"2f05ec00f6b4acd8dfffa81361aa339d","Public","ATPU","Atlantic Puffin","Fratercula arctica","seabirds",NA,"Juvenile",NA,"Water",NA,NA,NA,"0","3","3",NA,NA,NA,NA,NA,NA,"unique"
"MT-3743","Inner Gooseberry Island","NL","Newfoundland",2022,8,21,2022-08-21,"August","bef0c67fbba87f62a0890c4c3488f77d","230894a1db06bffeb2d97d81c6e9019d",48.880868,-53.642047,"d964586e64933d008f84b9451c2a97ed","Provincial","Unknown Bird","Unknown Bird","Aves (gen, sp)",NA,NA,NA,NA,"Water",NA,NA,NA,"0","10","10","We landed on Inner Gooseberry Island (Just outside St. Brendan’s) on Sunday August 21 and seen about 10 gannets in various states of decay/scavenging along the shore plus another other seabirds (~10) in the water slightly offshore also in advanced decay.",NA,NA,NA,NA,NA,NA
"MT-1978","Off Tors Cove","NL","Newfoundland",2022,8,14,2022-08-14,"August","3d6ad725337e1a37c2066fdf0e197bda","1b1f1fdf53e06c6ef4eb422178e04c31",47.207594,-52.816272,"2f05ec00f6b4acd8dfffa81361aa339d","Public","ATPU","Atlantic Puffin","Fratercula arctica","seabirds",NA,"Juvenile",NA,"Water",NA,NA,NA,"0","1","1","Photo File Name: Sunfish with dead puffin(2)",NA,NA,NA,NA,NA,NA
"MT-1979","Off Tors Cove","NL","Newfoundland",2022,8,14,2022-08-14,"August","3d6ad725337e1a37c2066fdf0e197bda","1b1f1fdf53e06c6ef4eb422178e04c31",47.207594,-52.816272,"2f05ec00f6b4acd8dfffa81361aa339d","Public","BLKI","Black-legged Kittiwake","Rissa tridactyla","seabirds",NA,"Juvenile",NA,"Water",NA,NA,NA,"0","1","1",NA,NA,NA,NA,NA,NA,NA
"MT-3950","Fogo Island","NL","Newfoundland",2022,8,3,2022-08-03,"August","86909360d14d45c2eb39e88896eb4dd2","1b1f1fdf53e06c6ef4eb422178e04c31",49.66902,-54.1404,"d964586e64933d008f84b9451c2a97ed","Public","NOGA","Northern Gannet","Morus bassanus","seabirds",NA,NA,NA,"Land",NA,NA,NA,NA,"2","2","Used the date of the email, no observation date reported",NA,NA,NA,NA,NA,NA
"MT-1981","Jean De Baie (near Marystown)","NL","Newfoundland",2022,8,15,2022-08-15,"August","cec726162e37ee56026d5da164cab465","43b84b50c000f89400f967dd78b2fa6e",47.1650754,-55.16,"3c8b48918dbe01e7edeefb53191e1fbb","Provincial","Unknown Loon","Unknown Loon","Gaviidae sp.","loons",NA,NA,NA,"Land",NA,NA,NA,NA,"1","1",NA,NA,NA,NA,NA,NA,NA
"MT-3583","Point Lance","NL","Newfoundland",2022,8,5,2022-08-05,"August","51e8f2aaf38ffd7945e8a5b4e5d8753c","1b1f1fdf53e06c6ef4eb422178e04c31",46.81375,-54.08388,"92c669e40748105782a0a350a4f78b3e","Academic","COMU","Common Murre","Uria aalge","seabirds",NA,"Adult",NA,"Land",NA,NA,NA,"0","97","97","Found on western section (150 m) of the beach","TB216",NA,NA,NA,NA,NA
"MT-1983","Baccalieu Island, NL","NL","Newfoundland",2022,8,15,2022-08-15,"August","346b4ce1b1e282cf01cc8bb9f42909cf","22cbb288c0d8999631491f9fca46294c",48.13554,-52.8007,"e8c75a824612d4463b0cc2ecf3e5d71a","ECCC","Unknown Bird","Unknown Bird","Aves (gen, sp)",NA,NA,NA,NA,"Land",NA,NA,NA,NA,"1","1","1 NOGA? (was distant and decomposed, potentially a NOGA fledging, or maybe a NOFU? Feather pattern didn’t suggest Gull species) ",NA,NA,NA,NA,NA,NA
"MT-1984","Newfoundland and Labrador, Division #7, Subdivision A, NL, CA","NL","Newfoundland",2022,8,15,2022-08-15,"August","6dad3401aef87cfa9b6d2dd1c0760288","1b1f1fdf53e06c6ef4eb422178e04c31",49.2456559,-53.4778006,"d19b251706156b4ec5b416339f8f7d5d","Citizen science platform","NOGA","Northern Gannet","Morus bassanus","seabirds",NA,NA,NA,"Land",NA,NA,NA,NA,"1","1",NA,"130925334",NA,NA,NA,NA,NA
"MT-1985","Off Tors Cove","NL","Newfoundland",2022,8,15,2022-08-15,"August","3d6ad725337e1a37c2066fdf0e197bda","1b1f1fdf53e06c6ef4eb422178e04c31",47.207594,-52.816272,"2f05ec00f6b4acd8dfffa81361aa339d","Public","ATPU","Atlantic Puffin","Fratercula arctica","seabirds",NA,"Juvenile",NA,"Water",NA,NA,NA,"0","2","2",NA,NA,NA,NA,NA,NA,NA
"MT-1986","Great Island","NL","Newfoundland",2022,8,15,2022-08-15,"August","3d6ad725337e1a37c2066fdf0e197bda","1b1f1fdf53e06c6ef4eb422178e04c31",47.194698,-52.807418,"2f05ec00f6b4acd8dfffa81361aa339d","Public","Unknown Alcid (Alcidae sp.)","Unknown Alcid ","Alcidae sp.","seabirds",NA,NA,NA,"Water",NA,NA,NA,"0","5","5",NA,NA,NA,NA,NA,NA,NA
"MT-1987","Great Island","NL","Newfoundland",2022,8,15,2022-08-15,"August","3d6ad725337e1a37c2066fdf0e197bda","1b1f1fdf53e06c6ef4eb422178e04c31",47.194698,-52.807418,"2f05ec00f6b4acd8dfffa81361aa339d","Public","HERG","Herring Gull","Larus argentatus","seabirds",NA,"Juvenile",NA,"Water",NA,NA,NA,"1","1","2",NA,NA,NA,NA,NA,NA,NA
"MT-1988","Great Island","NL","Newfoundland",2022,8,15,2022-08-15,"August","3d6ad725337e1a37c2066fdf0e197bda","1b1f1fdf53e06c6ef4eb422178e04c31",47.194698,-52.807418,"2f05ec00f6b4acd8dfffa81361aa339d","Public","BLKI","Black-legged Kittiwake","Rissa tridactyla","seabirds",NA,"Juvenile",NA,"Water",NA,NA,NA,"0","2","2",NA,NA,NA,NA,NA,NA,NA
"MT-1989","Great Island","NL","Newfoundland",2022,8,15,2022-08-15,"August","3d6ad725337e1a37c2066fdf0e197bda","1b1f1fdf53e06c6ef4eb422178e04c31",47.194698,-52.807418,"2f05ec00f6b4acd8dfffa81361aa339d","Public","ATPU","Atlantic Puffin","Fratercula arctica","seabirds",NA,"Juvenile",NA,"Water",NA,NA,NA,"0","2","2",NA,NA,NA,NA,NA,NA,NA
"MT-2004","Eastport Beach, NL","NL","Newfoundland",2022,8,18,2022-08-18,"August","9f5063713ef8f3cb6d31553ce913d343","88ce27db6609ac10c5fb438117e2ada6",48.65091,-53.7488,"99d0205b0a52b5f2ef3290c2f74907ae","NGO","COMU","Common Murre","Uria aalge","seabirds",NA,NA,NA,"Land",NA,NA,NA,NA,NA,"65","Found sprayed- potential duplicate",NA,NA,NA,NA,NA,"unique"
"MT-2021","Eastport Beach, NL","NL","Newfoundland",2022,8,18,2022-08-18,"August","9f5063713ef8f3cb6d31553ce913d343","88ce27db6609ac10c5fb438117e2ada6",48.65091,-53.7488,"99d0205b0a52b5f2ef3290c2f74907ae","NGO","COMU","Common Murre","Uria aalge","seabirds",NA,"Adult",NA,"Land",NA,NA,NA,NA,NA,"58","1 fledging",NA,NA,NA,NA,NA,"unique"
"MT-1992","Baccalieu Island, NL","NL","Newfoundland",2022,8,16,2022-08-16,"August","346b4ce1b1e282cf01cc8bb9f42909cf","22cbb288c0d8999631491f9fca46294c",48.13554,-52.8007,"e8c75a824612d4463b0cc2ecf3e5d71a","ECCC","NOGA","Northern Gannet","Morus bassanus","seabirds",NA,NA,NA,"Land",NA,NA,NA,NA,"3","3",NA,NA,NA,NA,NA,NA,NA
"MT-3824","North Harbour, Avalon","NL","Newfoundland",2022,8,5,2022-08-05,"August","7fa24783633030b72e9dc7de501efac1","1b1f1fdf53e06c6ef4eb422178e04c31",47.15182,-53.6633,"3c8b48918dbe01e7edeefb53191e1fbb","Provincial","COMU","Common Murre","Uria aalge","seabirds",NA,NA,NA,"Land",NA,NA,NA,NA,"50","50",NA,NA,NA,NA,NA,NA,NA
"MT-1994","Baccalieu Island, NL","NL","Newfoundland",2022,8,16,2022-08-16,"August","346b4ce1b1e282cf01cc8bb9f42909cf","22cbb288c0d8999631491f9fca46294c",48.13554,-52.8007,"e8c75a824612d4463b0cc2ecf3e5d71a","ECCC","Unknown Bird","Unknown Bird","Aves (gen, sp)",NA,NA,NA,NA,"Land",NA,NA,NA,NA,"1","1","Auk, ATPU or COMU fledging?",NA,NA,NA,NA,NA,NA
"MT-1995","Shoreline near the TNNP Visitor Centre","NL","Newfoundland",2022,8,16,2022-08-16,"August","0d94d79eb548b7d5a4666fa479c2b76b","6f6c7bc58301c1a78b3de6947c9eb8ae",48.578149,-53.948297,"140a63120623d9cdd5424818221ec0d2","Parks Canada","NOGA","Northern Gannet","Morus bassanus","seabirds",NA,NA,NA,"Land",NA,NA,NA,NA,NA,"1",NA,"2022-HWC-0648-ENFU-0007",NA,NA,NA,NA,NA
"MT-3681","Spaniards Cove","NL","Newfoundland",2022,8,21,2022-08-21,"August","cc5d5135147fb5e9e5a3a9e23e554608","1b1f1fdf53e06c6ef4eb422178e04c31",48.30361,-53.40551,"92c669e40748105782a0a350a4f78b3e","Academic","COMU","Common Murre","Uria aalge","seabirds",NA,NA,NA,"Land",NA,NA,NA,"0","40","40","COMU/TBMU","TB315",NA,NA,NA,NA,NA
"MT-3951","Fogo Island","NL","Newfoundland",2022,8,3,2022-08-03,"August","86909360d14d45c2eb39e88896eb4dd2","1b1f1fdf53e06c6ef4eb422178e04c31",49.66902,-54.1404,"d964586e64933d008f84b9451c2a97ed","Public","COMU","Common Murre","Uria aalge","seabirds",NA,NA,NA,"Land",NA,NA,NA,NA,"1","1","Used the date of the email, no observation date reported",NA,NA,NA,NA,NA,NA
"MT-684","A small beach length in Argentina, by the old runway","NL","Newfoundland",2022,7,17,2022-07-17,"July","e76a0ef6abf1f3f2f8576285f855063e","1b1f1fdf53e06c6ef4eb422178e04c31",47.312761,-53.970376,"d964586e64933d008f84b9451c2a97ed","Public","COMU","Common Murre","Uria aalge","seabirds",NA,NA,NA,"Land",NA,NA,NA,NA,"28","28",NA,NA,NA,NA,NA,NA,NA
"MT-2022","Baccalieu Island, NL","NL","Newfoundland",2022,8,18,2022-08-18,"August","346b4ce1b1e282cf01cc8bb9f42909cf","22cbb288c0d8999631491f9fca46294c",48.13554,-52.8007,"e8c75a824612d4463b0cc2ecf3e5d71a","ECCC","COMU","Common Murre","Uria aalge","seabirds",NA,NA,NA,"Land",NA,NA,NA,NA,"39","39","majority looked like murre, but there were smaller ones as well. Maybe fledglings? Maybe waterlogged older carcasses?",NA,NA,NA,NA,NA,NA
"MT-671","A small beach length in Argentina, by the old runway","NL","Newfoundland",2022,7,17,2022-07-17,"July","e76a0ef6abf1f3f2f8576285f855063e","1b1f1fdf53e06c6ef4eb422178e04c31",47.312761,-53.970376,"d964586e64933d008f84b9451c2a97ed","Public","ATPU","Atlantic Puffin","Fratercula arctica","seabirds",NA,NA,NA,"Land",NA,NA,NA,NA,"1","1",NA,NA,NA,NA,NA,NA,NA
"MT-683","A small beach length in Argentina, by the old runway","NL","Newfoundland",2022,7,17,2022-07-17,"July","e76a0ef6abf1f3f2f8576285f855063e","1b1f1fdf53e06c6ef4eb422178e04c31",47.312761,-53.970376,"d964586e64933d008f84b9451c2a97ed","Public","NOGA","Northern Gannet","Morus bassanus","seabirds",NA,NA,NA,"Land",NA,NA,NA,NA,"1","1",NA,NA,NA,NA,NA,NA,NA
"MT-2101","Carbonear War Memorial, Water Street","NL","Newfoundland",2022,9,16,2022-09-16,"September","6912a2182503d10d01511ac975a078a7","9d9f1a19d2ad33b93f8e6215c74954ab",47.74,-53.21,"d964586e64933d008f84b9451c2a97ed","Public","Unknown Gull","Unknown Gull","Laridae sp. ","seabirds",NA,NA,NA,NA,NA,NA,NA,NA,"1","1",NA,NA,NA,NA,NA,NA,NA
"MT-734","Witless Bay","NL","Newfoundland",2022,7,20,2022-07-20,"July","381bbf1e9c5d1576257692f1352e863a","97bb8c98b7c61b5ab06c3c5ff859e223",47.278878,-52.830932,"d964586e64933d008f84b9451c2a97ed","Public","NOGA","Northern Gannet","Morus bassanus","seabirds",NA,NA,NA,"Land",NA,NA,NA,NA,"1","1",NA,NA,NA,NA,NA,NA,"possible"
"MT-3574","Offshore Pigeon Cove Beach","NL","Newfoundland",2022,8,4,2022-08-04,"August","3385b63b076abdcbdf2f0e3a3f2724bc","1b1f1fdf53e06c6ef4eb422178e04c31",51.2008,-56.78288,"92c669e40748105782a0a350a4f78b3e","Academic","COMU","Common Murre","Uria aalge","seabirds",NA,NA,NA,"Water",NA,NA,NA,"0","36","36","August 4 11:30 foggy WSW light, COMU/TBMU","TB207",NA,NA,NA,NA,NA
"MT-2006","Ferryland Beach , NL","NL","Newfoundland",2022,8,18,2022-08-18,"August","9f5063713ef8f3cb6d31553ce913d343","88ce27db6609ac10c5fb438117e2ada6",47.03395,-52.8827,"99d0205b0a52b5f2ef3290c2f74907ae","NGO","NOGA","Northern Gannet","Morus bassanus","seabirds",NA,NA,NA,"Land",NA,NA,NA,NA,NA,"5",NA,NA,NA,NA,NA,NA,NA
"MT-2007","Eastport Beach, NL","NL","Newfoundland",2022,8,18,2022-08-18,"August","9f5063713ef8f3cb6d31553ce913d343","88ce27db6609ac10c5fb438117e2ada6",48.65091,-53.7488,"99d0205b0a52b5f2ef3290c2f74907ae","NGO","BLKI","Black-legged Kittiwake","Rissa tridactyla","seabirds",NA,NA,NA,"Land",NA,NA,NA,NA,NA,"5",NA,NA,NA,NA,NA,NA,"unique"
"MT-2008","Eastport Beach, NL","NL","Newfoundland",2022,8,18,2022-08-18,"August","9f5063713ef8f3cb6d31553ce913d343","88ce27db6609ac10c5fb438117e2ada6",48.65091,-53.7488,"99d0205b0a52b5f2ef3290c2f74907ae","NGO","ATPU","Atlantic Puffin","Fratercula arctica","seabirds",NA,NA,NA,"Land",NA,NA,NA,NA,NA,"5",NA,NA,NA,NA,NA,NA,"unique"
"MT-2009","Eastport Beach, NL","NL","Newfoundland",2022,8,18,2022-08-18,"August","9f5063713ef8f3cb6d31553ce913d343","88ce27db6609ac10c5fb438117e2ada6",48.65091,-53.7488,"99d0205b0a52b5f2ef3290c2f74907ae","NGO","NOGA","Northern Gannet","Morus bassanus","seabirds",NA,NA,NA,"Land",NA,NA,NA,NA,NA,"23","Found sprayed- potential duplicate",NA,NA,NA,NA,NA,"unique"
"MT-2010","Ferryland Beach , NL","NL","Newfoundland",2022,8,18,2022-08-18,"August","9f5063713ef8f3cb6d31553ce913d343","88ce27db6609ac10c5fb438117e2ada6",47.03395,-52.8827,"99d0205b0a52b5f2ef3290c2f74907ae","NGO","Unknown Gull","Unknown Gull","Laridae sp. ","seabirds",NA,NA,NA,"Land",NA,NA,NA,NA,NA,"3",NA,NA,NA,NA,NA,NA,NA
"MT-2011","Eastport Beach, NL","NL","Newfoundland",2022,8,18,2022-08-18,"August","9f5063713ef8f3cb6d31553ce913d343","88ce27db6609ac10c5fb438117e2ada6",48.65091,-53.7488,"99d0205b0a52b5f2ef3290c2f74907ae","NGO","BLKI","Black-legged Kittiwake","Rissa tridactyla","seabirds",NA,NA,NA,"Land",NA,NA,NA,NA,NA,"4","Found sprayed- potential duplicate",NA,NA,NA,NA,NA,"unique"
"MT-2012","Eastport Beach, NL","NL","Newfoundland",2022,8,18,2022-08-18,"August","9f5063713ef8f3cb6d31553ce913d343","88ce27db6609ac10c5fb438117e2ada6",48.65091,-53.7488,"99d0205b0a52b5f2ef3290c2f74907ae","NGO","Unknown Shearwater","Unknown Shearwater","Procellariidae sp.","seabirds",NA,NA,NA,"Land",NA,NA,NA,NA,NA,"6",NA,NA,NA,NA,NA,NA,"unique"
"MT-2013","Eastport Beach, NL","NL","Newfoundland",2022,8,18,2022-08-18,"August","9f5063713ef8f3cb6d31553ce913d343","88ce27db6609ac10c5fb438117e2ada6",48.65091,-53.7488,"99d0205b0a52b5f2ef3290c2f74907ae","NGO","NOGA","Northern Gannet","Morus bassanus","seabirds",NA,NA,NA,"Land",NA,NA,NA,NA,NA,"6","2 fairly newish and 1 very fresh",NA,NA,NA,NA,NA,"unique"
"MT-2014","Eastport Beach, NL","NL","Newfoundland",2022,8,18,2022-08-18,"August","9f5063713ef8f3cb6d31553ce913d343","88ce27db6609ac10c5fb438117e2ada6",48.65091,-53.7488,"99d0205b0a52b5f2ef3290c2f74907ae","NGO","Unknown Shearwater","Unknown Shearwater","Procellariidae sp.","seabirds",NA,NA,NA,"Land",NA,NA,NA,NA,NA,"6","Found sprayed- potential duplicate",NA,NA,NA,NA,NA,"unique"
"MT-2015","Eastport Beach, NL","NL","Newfoundland",2022,8,18,2022-08-18,"August","9f5063713ef8f3cb6d31553ce913d343","88ce27db6609ac10c5fb438117e2ada6",48.65091,-53.7488,"99d0205b0a52b5f2ef3290c2f74907ae","NGO","RAZO","Razorbill","Alca torda","seabirds",NA,NA,NA,"Land",NA,NA,NA,"1",NA,"2",NA,NA,NA,NA,NA,NA,"unique"
"MT-2016","Brigus South, NL","NL","Newfoundland",2022,8,18,2022-08-18,"August","9f5063713ef8f3cb6d31553ce913d343","88ce27db6609ac10c5fb438117e2ada6",47.11422,-52.8841,"99d0205b0a52b5f2ef3290c2f74907ae","NGO","BLKI","Black-legged Kittiwake","Rissa tridactyla","seabirds",NA,NA,NA,"Land",NA,NA,NA,NA,NA,"1",NA,NA,NA,NA,NA,NA,NA
"MT-2017","Ferryland Beach , NL","NL","Newfoundland",2022,8,18,2022-08-18,"August","9f5063713ef8f3cb6d31553ce913d343","88ce27db6609ac10c5fb438117e2ada6",47.03395,-52.8827,"99d0205b0a52b5f2ef3290c2f74907ae","NGO","BLKI","Black-legged Kittiwake","Rissa tridactyla","seabirds",NA,NA,NA,"Land",NA,NA,NA,NA,NA,"1",NA,NA,NA,NA,NA,NA,NA
"MT-2018","Eastport Beach, NL","NL","Newfoundland",2022,8,18,2022-08-18,"August","9f5063713ef8f3cb6d31553ce913d343","88ce27db6609ac10c5fb438117e2ada6",48.65091,-53.7488,"99d0205b0a52b5f2ef3290c2f74907ae","NGO","Unknown Gull","Unknown Gull","Laridae sp. ","seabirds",NA,NA,NA,"Land",NA,NA,NA,NA,NA,"1",NA,NA,NA,NA,NA,NA,NA
"MT-2019","Eastport Beach, NL","NL","Newfoundland",2022,8,18,2022-08-18,"August","9f5063713ef8f3cb6d31553ce913d343","88ce27db6609ac10c5fb438117e2ada6",48.65091,-53.7488,"99d0205b0a52b5f2ef3290c2f74907ae","NGO","ATPU","Atlantic Puffin","Fratercula arctica","seabirds",NA,NA,NA,"Land",NA,NA,NA,NA,NA,"1","Found sprayed- potential duplicate",NA,NA,NA,NA,NA,"unique"
"MT-2020","Eastport Beach, NL","NL","Newfoundland",2022,8,18,2022-08-18,"August","9f5063713ef8f3cb6d31553ce913d343","88ce27db6609ac10c5fb438117e2ada6",48.65091,-53.7488,"99d0205b0a52b5f2ef3290c2f74907ae","NGO","RAZO","Razorbill","Alca torda","seabirds",NA,NA,NA,"Land",NA,NA,NA,NA,NA,"1","Found sprayed- potential duplicate",NA,NA,NA,NA,NA,"unique"
"MT-3896","Dunfield, near Trinity","NL","Newfoundland",2022,8,16,2022-08-16,"August","3903b5d1450662767aeeedf98e0f5eb3","b0c8987e33d25c0e50c87ef5a7b5bacd",48.36774,-53.3587,"e8c75a824612d4463b0cc2ecf3e5d71a","ECCC","COMU","Common Murre","Uria aalge","seabirds",NA,"Adult",NA,"Land",NA,NA,NA,NA,"31","31","virtually all intact and little or not at al scavenged",NA,NA,NA,NA,NA,"unique"
"MT-3588","Cross Cove Beach near English Harbour","NL","Newfoundland",2022,8,6,2022-08-06,"August","796f7ea1d737927a9b96a81b987e8bde","1b1f1fdf53e06c6ef4eb422178e04c31",48.37007,-53.26614,"92c669e40748105782a0a350a4f78b3e","Academic","COMU","Common Murre","Uria aalge","seabirds",NA,NA,NA,"Land",NA,NA,NA,"0","30","30","Approx. estimate, lat/ long for english harbour, COMU/TBMU","TB221",NA,NA,NA,NA,NA
"MT-2023","Baccalieu Island, NL","NL","Newfoundland",2022,8,18,2022-08-18,"August","346b4ce1b1e282cf01cc8bb9f42909cf","22cbb288c0d8999631491f9fca46294c",48.13554,-52.8007,"e8c75a824612d4463b0cc2ecf3e5d71a","ECCC","NOGA","Northern Gannet","Morus bassanus","seabirds",NA,NA,NA,"Land",NA,NA,NA,NA,"8","8","Upper portion of colony",NA,NA,NA,NA,NA,"unique"
"MT-2024","Baccalieu Island, NL","NL","Newfoundland",2022,8,18,2022-08-18,"August","346b4ce1b1e282cf01cc8bb9f42909cf","22cbb288c0d8999631491f9fca46294c",48.13554,-52.8007,"e8c75a824612d4463b0cc2ecf3e5d71a","ECCC","NOGA","Northern Gannet","Morus bassanus","seabirds",NA,NA,NA,"Land",NA,NA,NA,"2",NA,"2","Top of colony",NA,NA,NA,NA,NA,"unique"
"MT-2025","Great Island","NL","Newfoundland",2022,8,18,2022-08-18,"August","3d6ad725337e1a37c2066fdf0e197bda","1b1f1fdf53e06c6ef4eb422178e04c31",47.194698,-52.807418,"2f05ec00f6b4acd8dfffa81361aa339d","Public","Unknown Alcid (Alcidae sp.)","Unknown Alcid ","Alcidae sp.","seabirds",NA,"Juvenile",NA,"Water",NA,NA,NA,"0","2","2",NA,NA,NA,NA,NA,NA,NA
"MT-2026","Great Island","NL","Newfoundland",2022,8,18,2022-08-18,"August","3d6ad725337e1a37c2066fdf0e197bda","1b1f1fdf53e06c6ef4eb422178e04c31",47.194698,-52.807418,"2f05ec00f6b4acd8dfffa81361aa339d","Public","BLKI","Black-legged Kittiwake","Rissa tridactyla","seabirds",NA,"Juvenile",NA,"Water",NA,NA,NA,"0","3","3",NA,NA,NA,NA,NA,NA,NA
"MT-2027","Great Island","NL","Newfoundland",2022,8,18,2022-08-18,"August","3d6ad725337e1a37c2066fdf0e197bda","1b1f1fdf53e06c6ef4eb422178e04c31",47.194698,-52.807418,"2f05ec00f6b4acd8dfffa81361aa339d","Public","ATPU","Atlantic Puffin","Fratercula arctica","seabirds",NA,"Juvenile",NA,"Water",NA,NA,NA,"0","4","4",NA,NA,NA,NA,NA,NA,NA
"MT-2028","Great Island","NL","Newfoundland",2022,8,18,2022-08-18,"August","3d6ad725337e1a37c2066fdf0e197bda","1b1f1fdf53e06c6ef4eb422178e04c31",47.194698,-52.807418,"2f05ec00f6b4acd8dfffa81361aa339d","Public","HERG","Herring Gull","Larus argentatus","seabirds",NA,"Juvenile",NA,"Water",NA,NA,NA,"1","0","1",NA,NA,NA,NA,NA,NA,NA
"MT-3836","English Harbour, Trinity Bay","NL","Newfoundland",2022,8,8,2022-08-08,"August","7fa24783633030b72e9dc7de501efac1","1b1f1fdf53e06c6ef4eb422178e04c31",48.36857,-53.2659,"3c8b48918dbe01e7edeefb53191e1fbb","Provincial","COMU","Common Murre","Uria aalge","seabirds",NA,NA,NA,"Land",NA,NA,NA,NA,"30","30","Turres",NA,NA,NA,NA,NA,NA
"MT-1903","Peckford Island, NL","NL","Newfoundland",2022,8,5,2022-08-05,"August","59d8b6379a8994f96f3428a30284a26d","ffef84b30a6c82cdb3a1ab28499a6c07",49.54149,-53.8542,"d964586e64933d008f84b9451c2a97ed","Public","NOGA","Northern Gannet","Morus bassanus","seabirds",NA,NA,NA,"Land",NA,NA,NA,NA,"3","3",NA,NA,NA,NA,NA,NA,"unique"
"MT-1907","Greenspond, NL","NL","Newfoundland",2022,8,5,2022-08-05,"August","bee44d45e57ff4888b1db4e5f6ed63bc","b0c8987e33d25c0e50c87ef5a7b5bacd",49.07472,-53.577,"e8c75a824612d4463b0cc2ecf3e5d71a","ECCC","COMU","Common Murre","Uria aalge","seabirds",NA,NA,NA,"Land",NA,NA,NA,NA,"29","29",NA,NA,NA,NA,NA,NA,"unique"
"MT-2032","Baccalieu Island, NL","NL","Newfoundland",2022,8,19,2022-08-19,"August","346b4ce1b1e282cf01cc8bb9f42909cf","22cbb288c0d8999631491f9fca46294c",48.13554,-52.8007,"e8c75a824612d4463b0cc2ecf3e5d71a","ECCC","NOGA","Northern Gannet","Morus bassanus","seabirds",NA,NA,NA,"Land",NA,NA,NA,NA,"2","2",NA,NA,NA,NA,NA,NA,"unique"
"MT-2033","Baccalieu Island, NL","NL","Newfoundland",2022,8,19,2022-08-19,"August","346b4ce1b1e282cf01cc8bb9f42909cf","22cbb288c0d8999631491f9fca46294c",48.13554,-52.8007,"e8c75a824612d4463b0cc2ecf3e5d71a","ECCC","NOGA","Northern Gannet","Morus bassanus","seabirds",NA,NA,NA,"Water",NA,NA,NA,"2",NA,"2","Spinning in circles onwater",NA,NA,NA,NA,NA,"unique"
"MT-2034","Great Island","NL","Newfoundland",2022,8,19,2022-08-19,"August","3d6ad725337e1a37c2066fdf0e197bda","1b1f1fdf53e06c6ef4eb422178e04c31",47.194698,-52.807418,"2f05ec00f6b4acd8dfffa81361aa339d","Public","ATPU","Atlantic Puffin","Fratercula arctica","seabirds",NA,"Juvenile",NA,"Water",NA,NA,NA,"0","1","1",NA,NA,NA,NA,NA,NA,NA
"MT-1905","Peckford Island, NL","NL","Newfoundland",2022,8,5,2022-08-05,"August","59d8b6379a8994f96f3428a30284a26d","ffef84b30a6c82cdb3a1ab28499a6c07",49.54149,-53.8542,"d964586e64933d008f84b9451c2a97ed","Public","NOGA","Northern Gannet","Morus bassanus","seabirds",NA,NA,NA,"Water",NA,NA,NA,NA,"2","2",NA,NA,NA,NA,NA,NA,"unique"
"MT-1904","Peckford Island, NL","NL","Newfoundland",2022,8,5,2022-08-05,"August","59d8b6379a8994f96f3428a30284a26d","ffef84b30a6c82cdb3a1ab28499a6c07",49.54149,-53.8542,"d964586e64933d008f84b9451c2a97ed","Public","COMU","Common Murre","Uria aalge","seabirds",NA,NA,NA,"Water",NA,NA,NA,"1",NA,"1",NA,NA,NA,NA,NA,NA,NA
"MT-2037","Great Island","NL","Newfoundland",2022,8,21,2022-08-21,"August","3d6ad725337e1a37c2066fdf0e197bda","1b1f1fdf53e06c6ef4eb422178e04c31",47.194698,-52.807418,"2f05ec00f6b4acd8dfffa81361aa339d","Public","ATPU","Atlantic Puffin","Fratercula arctica","seabirds",NA,"Juvenile",NA,"Water",NA,NA,NA,"0","2","2",NA,NA,NA,NA,NA,NA,NA
"MT-2038","Off Tors Cove","NL","Newfoundland",2022,8,21,2022-08-21,"August","3d6ad725337e1a37c2066fdf0e197bda","1b1f1fdf53e06c6ef4eb422178e04c31",47.207594,-52.816272,"2f05ec00f6b4acd8dfffa81361aa339d","Public","Unknown Alcid (Alcidae sp.)","Unknown Alcid ","Alcidae sp.","seabirds",NA,NA,NA,"Water",NA,NA,NA,"0","1","1",NA,NA,NA,NA,NA,NA,NA
"MT-2039","Off Tors Cove","NL","Newfoundland",2022,8,21,2022-08-21,"August","3d6ad725337e1a37c2066fdf0e197bda","1b1f1fdf53e06c6ef4eb422178e04c31",47.207594,-52.816272,"2f05ec00f6b4acd8dfffa81361aa339d","Public","ATPU","Atlantic Puffin","Fratercula arctica","seabirds",NA,"Juvenile",NA,"Water",NA,NA,NA,"0","2","2",NA,NA,NA,NA,NA,NA,NA
"MT-2040","Off Tors Cove","NL","Newfoundland",2022,8,21,2022-08-21,"August","3d6ad725337e1a37c2066fdf0e197bda","1b1f1fdf53e06c6ef4eb422178e04c31",47.207594,-52.816272,"2f05ec00f6b4acd8dfffa81361aa339d","Public","BLKI","Black-legged Kittiwake","Rissa tridactyla","seabirds",NA,"Juvenile",NA,"Water",NA,NA,NA,"0","2","2",NA,NA,NA,NA,NA,NA,NA
"MT-3571","Pigeon Cove Beach","NL","Newfoundland",2022,8,4,2022-08-04,"August","3385b63b076abdcbdf2f0e3a3f2724bc","1b1f1fdf53e06c6ef4eb422178e04c31",51.2008,-56.78288,"92c669e40748105782a0a350a4f78b3e","Academic","COMU","Common Murre","Uria aalge","seabirds",NA,"Adult",NA,"Land",NA,NA,NA,"0","28","28","August 4 11:30 foggy WSW light","TB204",NA,NA,NA,NA,NA
"MT-2042","Mobile Bay","NL","Newfoundland",2022,8,21,2022-08-21,"August","3d6ad725337e1a37c2066fdf0e197bda","1b1f1fdf53e06c6ef4eb422178e04c31",47.240308,-52.823562,"2f05ec00f6b4acd8dfffa81361aa339d","Public","NOGA","Northern Gannet","Morus bassanus","seabirds",NA,"Adult",NA,"Water",NA,NA,NA,"1","0","1",NA,NA,NA,NA,NA,NA,NA
"MT-2043","Maddox Cove","NL","Newfoundland",2022,8,22,2022-08-22,"August","1d7244e4b14ba59e6f540275f6f3a2e5","abe4d2e5ed4d5da226417dafe0463acf",47.47026,-52.71,"d964586e64933d008f84b9451c2a97ed","Academic","NOGA","Northern Gannet","Morus bassanus","seabirds",NA,NA,NA,"Land",NA,NA,NA,"1",NA,"1",NA,NA,NA,NA,NA,NA,NA
"MT-3631","Cape St. Mary's","NL","Newfoundland",2022,8,16,2022-08-16,"August","ea5f7ceb1d7f65ada202566974a93a7a","1b1f1fdf53e06c6ef4eb422178e04c31",46.821661,-54.188114,"92c669e40748105782a0a350a4f78b3e","Academic","COMU","Common Murre","Uria aalge","seabirds",NA,NA,NA,"Water",NA,NA,NA,"0","25","25","From Boat; Geocoded used False Cape, COMU/TBMU","TB266",NA,NA,NA,NA,NA
"MT-2046","Gull Island","NL","Newfoundland",2022,8,22,2022-08-22,"August","a8d23fd661582d78c104692a7c1aadba","662b7b238307de8b728a48dc8f38ca12",47.262278,-52.79,"e8c75a824612d4463b0cc2ecf3e5d71a","ECCC","ATPU","Atlantic Puffin","Fratercula arctica","seabirds",NA,"Juvenile",NA,"Land",NA,NA,NA,NA,"30","30","At least 30 pufflings dead outside their burrows",NA,NA,NA,NA,NA,NA
"MT-2049","Gill's Cove, Great Island","NL","Newfoundland",2022,8,23,2022-08-23,"August","3d6ad725337e1a37c2066fdf0e197bda","1b1f1fdf53e06c6ef4eb422178e04c31",47.19135,-52.812371,"2f05ec00f6b4acd8dfffa81361aa339d","Public","BLKI","Black-legged Kittiwake","Rissa tridactyla","seabirds",NA,NA,NA,"Water",NA,NA,NA,"0","6","6",NA,NA,NA,NA,NA,NA,NA
"MT-1216","Point La Haye","NL","Newfoundland",2022,7,25,2022-07-25,"July","84672dd0ca705e0306b64e20e28ac504","1b1f1fdf53e06c6ef4eb422178e04c31",46.89214,-53.5977,"d964586e64933d008f84b9451c2a97ed","Public","COMU","Common Murre","Uria aalge","seabirds",NA,NA,NA,"Water",NA,NA,NA,NA,"36","36","looking at the water dozens more floating around. Mostly Murre but at least two Razorbill and one Kittiwake.",NA,NA,NA,NA,NA,"unique"
"MT-2051","Great Island","NL","Newfoundland",2022,8,25,2022-08-25,"August","3d6ad725337e1a37c2066fdf0e197bda","1b1f1fdf53e06c6ef4eb422178e04c31",47.194698,-52.807418,"2f05ec00f6b4acd8dfffa81361aa339d","Public","Unknown Alcid (Alcidae sp.)","Unknown Alcid ","Alcidae sp.","seabirds",NA,"Juvenile",NA,"Water",NA,NA,NA,"0","2","2",NA,NA,NA,NA,NA,NA,NA
"MT-2052","Off Tors Cove","NL","Newfoundland",2022,8,25,2022-08-25,"August","3d6ad725337e1a37c2066fdf0e197bda","1b1f1fdf53e06c6ef4eb422178e04c31",47.207594,-52.816272,"2f05ec00f6b4acd8dfffa81361aa339d","Public","ATPU","Atlantic Puffin","Fratercula arctica","seabirds",NA,"Juvenile",NA,"Water",NA,NA,NA,"0","1","1",NA,NA,NA,NA,NA,NA,NA
"MT-2053","Cape Freels","NL","Newfoundland",2022,8,25,2022-08-25,"August","9e913d37406bb36fa3435fb8d5ad9f8e","1b1f1fdf53e06c6ef4eb422178e04c31",49.2286791,-53.4948964,"d964586e64933d008f84b9451c2a97ed","NGO","BLGU","Black Guillemot","Cepphus grylle","seabirds",NA,NA,NA,"Land",NA,NA,NA,NA,"1","1","IBEC's clean up 25-26/8/2022. Ref Sabina's email on 2022-09-14.",NA,NA,NA,NA,NA,NA
"MT-2054","Off Tors Cove","NL","Newfoundland",2022,8,26,2022-08-26,"August","3d6ad725337e1a37c2066fdf0e197bda","1b1f1fdf53e06c6ef4eb422178e04c31",47.207594,-52.816272,"2f05ec00f6b4acd8dfffa81361aa339d","Public","ATPU","Atlantic Puffin","Fratercula arctica","seabirds",NA,"Juvenile",NA,"Water",NA,NA,NA,"0","1","1",NA,NA,NA,NA,NA,NA,NA
"MT-2055","Off Tors Cove","NL","Newfoundland",2022,8,26,2022-08-26,"August","3d6ad725337e1a37c2066fdf0e197bda","1b1f1fdf53e06c6ef4eb422178e04c31",47.207594,-52.816272,"2f05ec00f6b4acd8dfffa81361aa339d","Public","NOGA","Northern Gannet","Morus bassanus","seabirds",NA,"Fledgling",NA,"Water",NA,NA,NA,"0","1","1",NA,NA,NA,NA,NA,NA,NA
"MT-2056","Great Island","NL","Newfoundland",2022,8,26,2022-08-26,"August","3d6ad725337e1a37c2066fdf0e197bda","1b1f1fdf53e06c6ef4eb422178e04c31",47.194698,-52.807418,"2f05ec00f6b4acd8dfffa81361aa339d","Public","Unknown Alcid (Alcidae sp.)","Unknown Alcid ","Alcidae sp.","seabirds",NA,"Juvenile",NA,"Water",NA,NA,NA,"0","6","6",NA,NA,NA,NA,NA,NA,NA
"MT-2057","Great Island","NL","Newfoundland",2022,8,27,2022-08-27,"August","3d6ad725337e1a37c2066fdf0e197bda","1b1f1fdf53e06c6ef4eb422178e04c31",47.194698,-52.807418,"2f05ec00f6b4acd8dfffa81361aa339d","Public","Unknown Alcid (Alcidae sp.)","Unknown Alcid ","Alcidae sp.","seabirds",NA,"Juvenile",NA,"Water",NA,NA,NA,"0","2","2",NA,NA,NA,NA,NA,NA,NA
"MT-2058","Great Island","NL","Newfoundland",2022,8,28,2022-08-28,"August","3d6ad725337e1a37c2066fdf0e197bda","1b1f1fdf53e06c6ef4eb422178e04c31",47.194698,-52.807418,"2f05ec00f6b4acd8dfffa81361aa339d","Public","Unknown Alcid (Alcidae sp.)","Unknown Alcid ","Alcidae sp.","seabirds",NA,"Juvenile",NA,"Water",NA,NA,NA,"0","7","7",NA,NA,NA,NA,NA,NA,NA
"MT-2059","Great Island","NL","Newfoundland",2022,8,28,2022-08-28,"August","3d6ad725337e1a37c2066fdf0e197bda","1b1f1fdf53e06c6ef4eb422178e04c31",47.194698,-52.807418,"2f05ec00f6b4acd8dfffa81361aa339d","Public","BLKI","Black-legged Kittiwake","Rissa tridactyla","seabirds",NA,"Juvenile",NA,"Water",NA,NA,NA,"0","1","1",NA,NA,NA,NA,NA,NA,NA
"MT-2060","Great Island","NL","Newfoundland",2022,8,28,2022-08-28,"August","3d6ad725337e1a37c2066fdf0e197bda","1b1f1fdf53e06c6ef4eb422178e04c31",47.194698,-52.807418,"2f05ec00f6b4acd8dfffa81361aa339d","Public","ATPU","Atlantic Puffin","Fratercula arctica","seabirds",NA,"Juvenile",NA,"Water",NA,NA,NA,"0","1","1",NA,NA,NA,NA,NA,NA,NA
"MT-2061","Ship Island","NL","Newfoundland",2022,8,28,2022-08-28,"August","3d6ad725337e1a37c2066fdf0e197bda","1b1f1fdf53e06c6ef4eb422178e04c31",47.197168,-52.830943,"2f05ec00f6b4acd8dfffa81361aa339d","Public","Unknown Alcid (Alcidae sp.)","Unknown Alcid ","Alcidae sp.","seabirds",NA,"Juvenile",NA,"Water",NA,NA,NA,"0","1","1",NA,NA,NA,NA,NA,NA,NA
"MT-2062","Ship Island","NL","Newfoundland",2022,8,28,2022-08-28,"August","3d6ad725337e1a37c2066fdf0e197bda","1b1f1fdf53e06c6ef4eb422178e04c31",47.197168,-52.830943,"2f05ec00f6b4acd8dfffa81361aa339d","Public","BLKI","Black-legged Kittiwake","Rissa tridactyla","seabirds",NA,"Juvenile",NA,"Water",NA,NA,NA,"0","1","1",NA,NA,NA,NA,NA,NA,NA
"MT-2063","Great Island","NL","Newfoundland",2022,8,29,2022-08-29,"August","3d6ad725337e1a37c2066fdf0e197bda","1b1f1fdf53e06c6ef4eb422178e04c31",47.194698,-52.807418,"2f05ec00f6b4acd8dfffa81361aa339d","Public","Unknown Alcid (Alcidae sp.)","Unknown Alcid ","Alcidae sp.","seabirds",NA,"Juvenile",NA,"Water",NA,NA,NA,"0","3","3",NA,NA,NA,NA,NA,NA,NA
"MT-2064","Great Island","NL","Newfoundland",2022,8,30,2022-08-30,"August","3d6ad725337e1a37c2066fdf0e197bda","1b1f1fdf53e06c6ef4eb422178e04c31",47.194698,-52.807418,"2f05ec00f6b4acd8dfffa81361aa339d","Public","Unknown Alcid (Alcidae sp.)","Unknown Alcid ","Alcidae sp.","seabirds",NA,"Juvenile",NA,"Water",NA,NA,NA,"0","1","1",NA,NA,NA,NA,NA,NA,NA
"MT-2065","Great Island","NL","Newfoundland",2022,8,31,2022-08-31,"August","3d6ad725337e1a37c2066fdf0e197bda","1b1f1fdf53e06c6ef4eb422178e04c31",47.194698,-52.807418,"2f05ec00f6b4acd8dfffa81361aa339d","Public","Unknown Alcid (Alcidae sp.)","Unknown Alcid ","Alcidae sp.","seabirds",NA,"Juvenile",NA,"Water",NA,NA,NA,"0","4","4",NA,NA,NA,NA,NA,NA,NA
"MT-2066","Great Island","NL","Newfoundland",2022,8,31,2022-08-31,"August","3d6ad725337e1a37c2066fdf0e197bda","1b1f1fdf53e06c6ef4eb422178e04c31",47.194698,-52.807418,"2f05ec00f6b4acd8dfffa81361aa339d","Public","ATPU","Atlantic Puffin","Fratercula arctica","seabirds",NA,"Juvenile",NA,"Water",NA,NA,NA,"0","1","1",NA,NA,NA,NA,NA,NA,NA
"MT-2067","Off Tors Cove","NL","Newfoundland",2022,8,31,2022-08-31,"August","3d6ad725337e1a37c2066fdf0e197bda","1b1f1fdf53e06c6ef4eb422178e04c31",47.207594,-52.816272,"2f05ec00f6b4acd8dfffa81361aa339d","Public","ATPU","Atlantic Puffin","Fratercula arctica","seabirds",NA,"Juvenile",NA,"Water",NA,NA,NA,"0","1","1",NA,NA,NA,NA,NA,NA,NA
"MT-2068","Off Tors Cove","NL","Newfoundland",2022,9,1,2022-09-01,"September","3d6ad725337e1a37c2066fdf0e197bda","1b1f1fdf53e06c6ef4eb422178e04c31",47.207594,-52.816272,"2f05ec00f6b4acd8dfffa81361aa339d","Public","ATPU","Atlantic Puffin","Fratercula arctica","seabirds",NA,"Juvenile",NA,"Water",NA,NA,NA,"0","3","3",NA,NA,NA,NA,NA,NA,NA
"MT-2069","Off Tors Cove","NL","Newfoundland",2022,9,1,2022-09-01,"September","3d6ad725337e1a37c2066fdf0e197bda","1b1f1fdf53e06c6ef4eb422178e04c31",47.207594,-52.816272,"2f05ec00f6b4acd8dfffa81361aa339d","Public","Unknown Alcid (Alcidae sp.)","Unknown Alcid ","Alcidae sp.","seabirds",NA,"Juvenile",NA,"Water",NA,NA,NA,"0","5","5",NA,NA,NA,NA,NA,NA,NA
"MT-2070","Great Island","NL","Newfoundland",2022,9,1,2022-09-01,"September","3d6ad725337e1a37c2066fdf0e197bda","1b1f1fdf53e06c6ef4eb422178e04c31",47.194698,-52.807418,"2f05ec00f6b4acd8dfffa81361aa339d","Public","ATPU","Atlantic Puffin","Fratercula arctica","seabirds",NA,"Juvenile",NA,"Water",NA,NA,NA,"0","5","5",NA,NA,NA,NA,NA,NA,NA
"MT-2071","Great Island","NL","Newfoundland",2022,9,1,2022-09-01,"September","3d6ad725337e1a37c2066fdf0e197bda","1b1f1fdf53e06c6ef4eb422178e04c31",47.194698,-52.807418,"2f05ec00f6b4acd8dfffa81361aa339d","Public","Unknown Alcid (Alcidae sp.)","Unknown Alcid ","Alcidae sp.","seabirds",NA,"Juvenile",NA,"Water",NA,NA,NA,"0","10","10",NA,NA,NA,NA,NA,NA,NA
"MT-2072","Great Island","NL","Newfoundland",2022,9,1,2022-09-01,"September","3d6ad725337e1a37c2066fdf0e197bda","1b1f1fdf53e06c6ef4eb422178e04c31",47.194698,-52.807418,"2f05ec00f6b4acd8dfffa81361aa339d","Public","GRSH","Great Shearwater","Ardenna gravis","seabirds",NA,"Adult",NA,"Water",NA,NA,NA,"0","1","1",NA,NA,NA,NA,NA,NA,NA
"MT-2073","Mobile Bay","NL","Newfoundland",2022,9,1,2022-09-01,"September","3d6ad725337e1a37c2066fdf0e197bda","1b1f1fdf53e06c6ef4eb422178e04c31",47.240308,-52.823562,"2f05ec00f6b4acd8dfffa81361aa339d","Public","NOGA","Northern Gannet","Morus bassanus","seabirds",NA,"Adult",NA,"Water",NA,NA,NA,"1","0","1",NA,NA,NA,NA,NA,NA,NA
"MT-2074","Mobile Bay","NL","Newfoundland",2022,9,2,2022-09-02,"September","3d6ad725337e1a37c2066fdf0e197bda","1b1f1fdf53e06c6ef4eb422178e04c31",47.240308,-52.823562,"2f05ec00f6b4acd8dfffa81361aa339d","Public","ATPU","Atlantic Puffin","Fratercula arctica","seabirds",NA,"Juvenile",NA,"Water",NA,NA,NA,"0","1","1",NA,NA,NA,NA,NA,NA,NA
"MT-2075","Great Island","NL","Newfoundland",2022,9,2,2022-09-02,"September","3d6ad725337e1a37c2066fdf0e197bda","1b1f1fdf53e06c6ef4eb422178e04c31",47.194698,-52.807418,"2f05ec00f6b4acd8dfffa81361aa339d","Public","Unknown Alcid (Alcidae sp.)","Unknown Alcid ","Alcidae sp.","seabirds",NA,"Juvenile",NA,"Water",NA,NA,NA,"0","1","1",NA,NA,NA,NA,NA,NA,NA
"MT-2076","Great Island","NL","Newfoundland",2022,9,3,2022-09-03,"September","3d6ad725337e1a37c2066fdf0e197bda","1b1f1fdf53e06c6ef4eb422178e04c31",47.194698,-52.807418,"2f05ec00f6b4acd8dfffa81361aa339d","Public","Unknown Alcid (Alcidae sp.)","Unknown Alcid ","Alcidae sp.","seabirds",NA,"Juvenile",NA,"Water",NA,NA,NA,"0","3","3",NA,NA,NA,NA,NA,NA,NA
"MT-2077","Mobile Bay","NL","Newfoundland",2022,9,3,2022-09-03,"September","3d6ad725337e1a37c2066fdf0e197bda","1b1f1fdf53e06c6ef4eb422178e04c31",47.240308,-52.823562,"2f05ec00f6b4acd8dfffa81361aa339d","Public","ATPU","Atlantic Puffin","Fratercula arctica","seabirds",NA,"Juvenile",NA,"Water",NA,NA,NA,"0","8","8",NA,NA,NA,NA,NA,NA,NA
"MT-2078","Off Tors Cove","NL","Newfoundland",2022,9,3,2022-09-03,"September","3d6ad725337e1a37c2066fdf0e197bda","1b1f1fdf53e06c6ef4eb422178e04c31",47.207594,-52.816272,"2f05ec00f6b4acd8dfffa81361aa339d","Public","ATPU","Atlantic Puffin","Fratercula arctica","seabirds",NA,"Juvenile",NA,"Water",NA,NA,NA,"0","3","3",NA,NA,NA,NA,NA,NA,NA
"MT-2079","Off Tors Cove","NL","Newfoundland",2022,9,3,2022-09-03,"September","3d6ad725337e1a37c2066fdf0e197bda","1b1f1fdf53e06c6ef4eb422178e04c31",47.207594,-52.816272,"2f05ec00f6b4acd8dfffa81361aa339d","Public","Unknown Alcid (Alcidae sp.)","Unknown Alcid ","Alcidae sp.","seabirds",NA,"Juvenile",NA,"Water",NA,NA,NA,"0","6","6",NA,NA,NA,NA,NA,NA,NA
"MT-2080","Off Tors Cove","NL","Newfoundland",2022,9,3,2022-09-03,"September","3d6ad725337e1a37c2066fdf0e197bda","1b1f1fdf53e06c6ef4eb422178e04c31",47.207594,-52.816272,"2f05ec00f6b4acd8dfffa81361aa339d","Public","COMU","Common Murre","Uria aalge","seabirds",NA,"Adult",NA,"Water",NA,NA,NA,"0","1","1",NA,NA,NA,NA,NA,NA,NA
