ECCCUniqueID,DataEnteredBy,SiteName,Prov,Prov_2,Year,Month,Day,DateObserved,Observer,Observer_contact,Lat,Long,SpeciesAlphaCode,CommonName,LatinName,GroupAs,Species_HPAIstatus,Individual_HPAIVstatus,YN,AgeClass,BreedingStatus,LandWaterColony,IFcolony_complete_partial_survey,IFcolony_boat_land_heli_plane,n_FoundNeurological,n_FoundDead,TotalObserved,n_SwabCollected,n_CarcassesCollectedAtSite,n_CarcassesSentForTesting,WhereCarcassWasSent,WhoCollected,n_Photos,PhotoVideo,GoogleDriveLinkForPhotoVideo,Comments,Site_Geocoding,lat_geocoded,lon_geocoded,latlon_simple,lat_simple,lon_simple,id,
MT-2102,,Gulf of St Lawrence,NL,Newfoundland,2022,7,15,2021-11-30,Marine Atlantic Ferries,,,,NOGA,Northern Gannet,Morus bassanus,seabirds,,,,,,Water,,,,X,X,,,,,,,,,Report from Marine Atlantic ferry workers seeing many dead gannets every day on GSL crossings,"Gulf of St Lawrence, NL",53.13551,-57.6604,,,,,
CT-118,Tania Barychka,Gull Island,NL,Newfoundland,2022,,,2021-11-30,Steve Duffy,,,,,,,,,,,,,Colony,,Boat,,,,,,,,,,,,,,,,,,,,
CT-119,Tania Barychka,Gull Island,NL,Newfoundland,2022,,,2021-11-30,Steve Duffy,,,,,,,,,,,,,Colony,,Boat,,,,,,,,,,,,,,,,,,,,
CT-120,Tania Barychka,Gull Island,NL,Newfoundland,2022,,,2021-11-30,Steve Duffy,,,,,,,,,,,,,Colony,,Boat,,,,,,,,,,,,,,,,,,,,
CT-121,Tania Barychka,Great Island,NL,Newfoundland,2022,,,2021-11-30,Steve Duffy,,,,,,,,,,,,,Colony,,Boat,,,,,,,,,,,,,,,,,,,,
CT-122,Tania Barychka,Green Island,NL,Newfoundland,2022,,,2021-11-30,Steve Duffy,,,,,,,,,,,,,Colony,,Boat,,,,,,,,,,,,,,,,,,,,
MT-191,,Winterhouse,NL,Newfoundland,2022,5,10,2022-05-10,DFO officers,,48.69,-58.92,NOGA,Northern Gannet,Morus bassanus,seabirds,presume_positive,,,,,Land,,,2,4,6,,5,5,"Animal Health, Brookfield Road",ECCC WED,,,,Reported to CWS by WED,"Winterhouse, NL",48.69564,-58.9266,"48.69, -58.92",48.69,-58.92,,
MT-241,,Bay of Islands,NL,Newfoundland,2022,5,13,2022-05-13,DFO officers,,49.21,-58.33,NOGA,Northern Gannet,Morus bassanus,seabirds,presume_positive,,,,,Land,,,,12,12,,,,,,,,,Reported to CWS by WED,"Bay of Islands, NL",49.17177,-58.2513,"49.21, -58.33",49.21,-58.33,,
MT-246,,Pasadena,NL,Newfoundland,2022,5,21,2022-05-21,Public,,48.99,-57.72,NOGA,Northern Gannet,Morus bassanus,seabirds,presume_positive,,,,,Land,,,1,0,1,,,,,,,,,Was called in to Provincial Wildlife,"Pasadena, NL",49.01304,-57.5894,"48.99, -57.72",48.99,-57.72,,
MT-247,,Lord's Cove,NL,Newfoundland,2022,5,22,2022-05-22,Public,,46.88,-55.66,NOGA,Northern Gannet,Morus bassanus,seabirds,presume_positive,,,,,Land,,,1,0,1,,,,,,,,,Reported on Facebook,"Lord's Cove, NL",,,"46.88, -55.66",46.88,-55.66,,
MT-248,,Bay of Islands,NL,Newfoundland,2022,5,22,2022-05-22,DFO officers,,49.21,-58.33,NOGA,Northern Gannet,Morus bassanus,seabirds,presume_positive,,,,,Land,,,,100,100,,,,,,,,,Reported to CWS by WED,"Bay of Islands, NL",49.17177,-58.2513,"49.21, -58.33",49.21,-58.33,,
MT-3373,TaniaBarychka,Caplin Cove,NL,Newfoundland,2022,5,22,2022-05-22,Cyril Lundrigan,Bill_Montevecchi_Lab,48.03594,-52.98601,NOGA,Northern Gannet,Morus bassanus,seabirds,presume_positive,,,,,,,,0,2,2,,,,,,,,,,,,,,,,TB001,
MT-249,,Holyrood,NL,Newfoundland,2022,5,25,2022-05-25,Public,,47.39,-53.13,NOGA,Northern Gannet,Morus bassanus,seabirds,presume_positive,Negative,N,,,Land,,,1,1,2,,2,2,"Animal Health, Brookfield Road",CWS,,,,Tested negative,"Holyrood, NL",47.38496,-53.1247,"47.39, -53.13",47.39,-53.13,,
MT-252,,Offshore near Rocky Harbour,NL,Newfoundland,2022,5,27,2022-05-27,Public,,49.59,-57.96,NOGA,Northern Gannet,Morus bassanus,seabirds,presume_positive,,,,,Water,,,,16,16,,0,0,,,,,,Some uncertainty re. coords since report was of birds seen offshore but vicinity of Rocky Harbour; Report from Sherry Pittman (ECCC-WED) from fisherman John Decker,"Offshore near Rocky Harbour, NL",49.59048,-57.9152,"49.59, -57.96",49.59,-57.96,,
MT-253,,Offshore Sally's Cove,NL,Newfoundland,2022,5,27,2022-05-27,Public,,49.74,-57.93,NOGA,Northern Gannet,Morus bassanus,seabirds,presume_positive,,,,,Water,,,1,0,1,,0,0,,,,,,"Some uncertainty re. coordinates; Report from Sherry Pittman (ECCC-WED) from fisherman Freeman Gill who reported ""many dead off Sally’s Cove and several sick with their heads bobbing"" and at least one seen alive and suspected later dead in small pond near Sally's Cove; Sherry noted that BAEA nest near pond where one dead NOGA was observed","Offshore Sally's Cove, NL",49.73129,-57.9331,"49.74, -57.93",49.74,-57.93,,
MT-254,,Flat Bay,NL,Newfoundland,2022,5,27,2022-05-27,Public,,48.42,-58.58,NOGA,Northern Gannet,Morus bassanus,seabirds,presume_positive,,,,,Land,,,,27,27,,0,,,,,,,Report from River Guardian to Sherry Pittman,"Flat Bay, NL",48.39956,-58.5892,"48.42, -58.58",48.42,-58.58,,
MT-3374,TaniaBarychka,"RBGU Long Pond, CBS",NL,Newfoundland,2022,5,27,2022-05-27,Dave Wilson,Bill_Montevecchi_Lab,47.52219,-52.96437,RBGU,Ring-billed Gull,Larus delawarensis,seabirds,presume_positive,,,Adult,,,,,0,1,1,,,,,,,,,,,,,,,,TB002,
MT-3375,TaniaBarychka,"RBGU Long Pond, CBS",NL,Newfoundland,2022,5,27,2022-05-27,Dave Wilson,Bill_Montevecchi_Lab,47.52219,-52.96437,HERG,Herring Gull,Larus argentatus,seabirds,presume_positive,,,Adult,,,,,0,3,3,,,,,,,,,,,,,,,,TB003,
MT-255,,Port aux Basques Channel,NL,Newfoundland,2022,5,29,2022-05-29,Public,,47.57,-59.12,NOGA,Northern Gannet,Morus bassanus,seabirds,presume_positive,,,,,Land,,,,X,X,,,,,,,,,"Forwarded to C. Ward from GNL ""Paddys Pond Duty Officer""","Port aux Basques Channel, NL",47.57211,-59.1364,"47.57, -59.12",47.57,-59.12,,
MT-256,,Bay St George,NL,Newfoundland,2022,5,29,2022-05-29,Public,,48.52,-58.6,NOGA,Northern Gannet,Morus bassanus,seabirds,presume_positive,,,,,Land,,,,X,X,,,,,,,,,,"Bay St George, NL",48.38886,-58.6585,"48.52, -58.6",48.52,-58.6,,
MT-257,,Lark Harbour,NL,Newfoundland,2022,5,29,2022-05-29,"Kevin Champion, DFO",,49.1,-58.37,NOGA,Northern Gannet,Morus bassanus,seabirds,presume_positive,,,,,Land,,,,X,X,,,,,,,,,"""several""","Lark Harbour, NL",49.10195,-58.3645,"49.1, -58.37",49.1,-58.37,,
MT-3376,TaniaBarychka,"RBGU Long Pond, CBS",NL,Newfoundland,2022,5,29,2022-05-29,Dave Wilson,Bill_Montevecchi_Lab,47.52219,-52.96437,NOGA,Northern Gannet,Morus bassanus,seabirds,presume_positive,,,,,,,,0,1,1,,,,,,,,,,,,,,,,TB004,
MT-3377,TaniaBarychka,"RBGU Long Pond, CBS",NL,Newfoundland,2022,5,29,2022-05-29,Dave Wilson,Bill_Montevecchi_Lab,47.52219,-52.96437,LESP,Leach's Storm-Petrel,Hydrobates leucorhous,seabirds,presume_positive,,,,,,,,0,1,1,,,,,,,,,,,,,,,,TB005,
MT-258,,Black Bank Beach (Stephenville Crossing),NL,Newfoundland,2022,5,30,2022-05-30,Public,,48.5,-58.4,NOGA,Northern Gannet,Morus bassanus,seabirds,presume_positive,,,,,Land,,,,12,12,,,,,,,,,"Reported to Dylan Decker, ECCC WED; WED may collect samples; coordinates estimated (could not find black bank beach)","Black Bank Beach (Stephenville Crossing), NL",48.528,-58.4468,"48.5, -58.4",48.5,-58.4,,
MT-259,,Hopall,NL,Newfoundland,2022,6,2,2022-06-02,Provincial CO,,47.61,-53.51,NOGA,Northern Gannet,Morus bassanus,seabirds,presume_positive,Negative,N,,,Land,,,1,0,1,,1,1,NL Animal Health,NL CO,,,,Tested negative,"Hopall, NL",47.61677,-53.509,"47.61, -53.51",47.61,-53.51,,
MT-260,,Holyrood,NL,Newfoundland,2022,6,3,2022-06-03,MUN students,,47.39,-53.13,NOGA,Northern Gannet,Morus bassanus,seabirds,presume_positive,Negative,N,,,Land,,,,1,1,,1,1,NL Animal Health,Tori and Robert,,,,Sub-adult; carcass perfectly intact; tested negative,"Holyrood, NL",47.38496,-53.1247,"47.39, -53.13",47.39,-53.13,,
MT-261,,Holyrood,NL,Newfoundland,2022,6,3,2022-06-03,MUN students,,47.39,-53.13,NOFU,Northern Fulmar,Fulmarus glacialis,seabirds,presume_positive,,,,,Land,,,,1,1,,1,1,NL Animal Health,Tori and Robert,,,,Carcass perfectly intact,"Holyrood, NL",47.38496,-53.1247,"47.39, -53.13",47.39,-53.13,,
MT-3378,TaniaBarychka,Holyrood Beach,NL,Newfoundland,2022,6,3,2022-06-03,Bobby Blackmore & Tori Burt,Bill_Montevecchi_Lab,47.38598,-53.13161,NOGA,Northern Gannet,Morus bassanus,seabirds,presume_positive,Negative,,Subadult,,,,,0,1,1,,,,,,,,,Neg,,,,,,,TB006,
MT-262,,On water off Cape St. Mary's,NL,Newfoundland,2022,6,5,2022-06-05,Fisherman,,46.82,-54.19,NOGA,Northern Gannet,Morus bassanus,seabirds,presume_positive,,,,,Land,,,,4,4,,1,1,NL Animal Health,Fisherman,,,,Observation was reported to Bill Montevecchi who also coordinated carcass retrieval; tested positive,"On water off Cape St. Mary's, NL",46.81667,-54.2,"46.82, -54.19",46.82,-54.19,,
MT-3379,TaniaBarychka,Cape St. Mary's,NL,Newfoundland,2022,6,5,2022-06-05,Eddie White,Bill_Montevecchi_Lab,46.82332,-54.19591,NOGA,Northern Gannet,Morus bassanus,seabirds,presume_positive,,,Subadult,,,,,0,1,1,,,,,,,,,"Pos,",,,,,,,TB007,
MT-3380,TaniaBarychka,Cape St. Mary's,NL,Newfoundland,2022,6,5,2022-06-05,Eddie White,Bill_Montevecchi_Lab,46.82332,-54.19591,NOGA,Northern Gannet,Morus bassanus,seabirds,presume_positive,,,,,,,,0,3,3,,,,,,,,,"NA,",,,,,,,TB008,
MT-3381,TaniaBarychka,St. Bride's,NL,Newfoundland,2022,6,5,2022-06-05,Frances McGraw,Bill_Montevecchi_Lab,46.91992,-54.17298,NOGA,Northern Gannet,Morus bassanus,seabirds,presume_positive,,,,,,,,0,2,2,,,,,,,,,"NA,",,,,,,,TB009,
MT-263,,Barachois,NL,Newfoundland,2022,6,6,2022-06-06,NL CO,,46.8611,-53.58,NOGA,Northern Gannet,Morus bassanus,seabirds,presume_positive,,,,,Land,,,,,2,,,,,,,,,Tested positive,"Barachois, NL",46.86111,-53.5847,"46.86, -53.58",46.86,-53.58,,
MT-264,,Lourdes Beach,NL,Newfoundland,2022,6,8,2022-06-08,Gerard Carroll,,48.66,-59,NOGA,Northern Gannet,Morus bassanus,seabirds,presume_positive,,,,,Land,,,10,1,11,,,,,,,,,"Reported to Chuck Porter, NL DFFA","Lourdes Beach , NL",48.657,-59.0036,"48.66, -59",48.66,-59,,
MT-265,,Off Lourdes Beach,NL,Newfoundland,2022,6,8,2022-06-08,Fishermen,,48.66,-59,NOGA,Northern Gannet,Morus bassanus,seabirds,presume_positive,,,,,Water,,,200,,200,,,,,,,,,"Reported to Gerard Carroll, who reported it to Chuck Porter","Off Lourdes Beach, NL",48.657,-59.0036,"48.66, -59",48.66,-59,,
MT-266,,Sandy Point,NL,Newfoundland,2022,6,9,2022-06-09,People doing PIPL surveys,,48.45,-58.5,NOGA,Northern Gannet,Morus bassanus,seabirds,presume_positive,,,,,Land,,,25,,25,,,,,,,,,"Reported to Dylan Decker, WED, who passed on report","Sandy Point, NL",48.45,-58.5,"48.45, -58.5",48.45,-58.5,,
MT-267,,"Point May, Burin Peninsula",NL,Newfoundland,2022,6,10,2022-06-10,Fisherman,,46.93,-55.93,NOGA,Northern Gannet,Morus bassanus,seabirds,presume_positive,,,,,Land,,,,several,,,,,,,,,,,"Point May, Burin Peninsula, NL",47,-55.5,"46.93, -55.93",46.93,-55.93,,
MT-268,Tania Barychka,"Newfoundland and Labrador, Canada",NL,Newfoundland,2022,6,12,2022-06-12,iNaturalist,firestarter,49.9559731,-57.800987,NOGA,Northern Gannet,Morus bassanus,seabirds,presume_positive,,,,,Land,,,,1,1,,,,,,,,,,,,,,,,122017077,
MT-269,,"Black Duck Brook Trail, Port-Au-Port",NL,Newfoundland,2022,6,15,2022-06-15,Melvin Lecoure,,48.56526,-58.801437,NOGA,Northern Gannet,Morus bassanus,seabirds,presume_positive,,,,,Land,,,,19,19,,,,,,,,,"Reported to Ben Andrews, DFO officer","Black Duck Brook Trail, Port-Au-Port, NL",48.55692,-58.7115,,,,,
MT-270,Tania Barychka,"Newfoundland and Labrador, Canada",NL,Newfoundland,2022,6,20,2022-06-20,iNaturalist,jasminepinksen,48.482029,-58.429933,NOGA,Northern Gannet,Morus bassanus,seabirds,presume_positive,,,,,Land,,,,1,1,,,,,,,,,,,,,,,,125806941,
MT-3382,TaniaBarychka,"RBGU Long Pond, CBS",NL,Newfoundland,2022,6,27,2022-06-27,Dave Wilson,Bill_Montevecchi_Lab,47.52219,-52.96437,RBGU,Ring-billed Gull,Larus delawarensis,seabirds,presume_positive,,,Chicks,,,,,0,dozens or hundreds,dozens or hundred's,,,,,,,,,"Parents still present at colony, number of birds not specified, RBGU",,,,,,,TB010,
MT-3455,TaniaBarychka,Kippens Beach,NL,Newfoundland,2022,7,1,2022-07-01,Lori Deeley,Bill_Montevecchi_Lab,48.54993,-58.62347,NOGA,Northern Gannet,Morus bassanus,seabirds,presume_positive,,,,,Land,,,0,4,4,,,,,,,,,Added 01 as Day in Date for processing purposes,,,,,,,TB084,
MT-3456,TaniaBarychka,Big Barasway,NL,Newfoundland,2022,7,1,2022-07-01,Lori Deeley,Bill_Montevecchi_Lab,47.79625,-55.79415,NOGA,Northern Gannet,Morus bassanus,seabirds,presume_positive,,,,,,,,0,2,2,,,,,,,,,Near Burgeo; Added 01 as Day in Date for processing purposes,,,,,,,TB085,
MT-3457,TaniaBarychka,Great Island,NL,Newfoundland,2022,7,1,2022-07-01,Jeannine Winkle,Bill_Montevecchi_Lab,47.52866,-57.35484,BAEA,Bald Eagle,Haliaeetus leucocephalus,raptors,presume_positive,,,Immature,,Land,,,1,0,1,,,,,,,,,"Droopy wing, Added 01 as Day in Date for processing purposes",,,,,,,TB086,
MT-3621,TaniaBarychka,near Gros Morne,NL,Newfoundland,2022,7,1,2022-07-01,Andre Masse,Bill_Montevecchi_Lab,49.68512,-57.9558,NOGA,Northern Gannet,Morus bassanus,seabirds,presume_positive,,,,,,,,,Many,Many,,,,,,,,,number of birds not specified; Day in Date edited (TB),,,,,,,TB256,
MT-3713,TaniaBarychka,Gros Morne,NL,Newfoundland,2022,7,1,2022-07-01,Andre Masse,Bill_Montevecchi_Lab,49.68512,-57.9558,NOGA,Northern Gannet,Morus bassanus,seabirds,presume_positive,,,,,,,,,,Many,,,,,,,,,Day in date edited (TB),,,,,,,TB347,
MT-271,Stephanie Avery-Gomm,Point May,NL,Newfoundland,2022,7,5,2022-07-05,Bill Montevecchi - second hand,,46.899622,-55.937704,UNMU,Unknown Murre,Unknown Murre,seabirds,presume_positive,,,,,Land,,,,10,10,,,,,,,,,"""Dead murres at Point May last week.""","Point May, NL",46.89879,-55.9332,"46.9, -55.94",46.9,-55.94,,
MT-5051,Tania Barychka,St. George's-Stephenville,NL,Newfoundland,2022,7,5,2022-07-05,ebird Apri -Sept 2022,S114451426,48.55086,-58.6349,AMRO,American Robin,Turdus migratorius,landbirds,presume_positive,,,Juvenile,,Land,,,,1,1,,,,,,0,,,Found one deceased juvenile on our property line path a couple of days ago.,,,,,,,S114451426,
MT-272,Tania Barychka,Branch Beach,NL,Newfoundland,2022,7,6,2022-07-06,Kira Whittaker via Bill Montevecchi,,46.88222,-53.953,COMU,Common Murre,Uria aalge,seabirds,presume_positive,,,,,Land,,,,1,1,,,,,,,,,,,,,,,,,
MT-3383,TaniaBarychka,Near Branch,NL,Newfoundland,2022,7,6,2022-07-06,Kira Whitaker,Bill_Montevecchi_Lab,46.8801,-53.95038,COMU,Common Murre,Uria aalge,seabirds,presume_positive,,,,,,,,0,1,1,,,,,,,,,,,,,,,,TB011,
MT-3384,TaniaBarychka,Lumsden Beach,NL,Newfoundland,2022,7,7,2022-07-07,G Wood,Bill_Montevecchi_Lab,49.29533,-53.59849,TBMU,Thick-billed Murre,Uria lomvia,seabirds,presume_positive,,,,,,,,9,2,11,,,,,,,,,,,,,,,,TB012,
MT-3385,TaniaBarychka,"RBGU Long Pond, CBS",NL,Newfoundland,2022,7,7,2022-07-07,Dave Wilson,Bill_Montevecchi_Lab,47.52219,-52.96437,RBGU,Ring-billed Gull,Larus delawarensis,seabirds,presume_positive,,,Chicks,,,,,0,many,many,,,,,,,,,"Many parents abandoned, RBGU",,,,,,,TB013,
MT-273,Stephanie Avery-Gomm,Point May,NL,Newfoundland,2022,7,8,2022-07-08,"Not reported (details from summary email provided by Sabina Wilhelm July 15, 2022 ""RE: Bird mortalities near Cape St. Mary's likely associated with HPAI"")",,46.899622,-55.937704,COMU,Common Murre,Uria aalge,seabirds,presume_positive,,,,,Land,,,,14,14,,,14,CWHC,,,,,,"Point May, NL",46.89879,-55.9332,"46.9, -55.94",46.9,-55.94,,
MT-274,Stephanie Avery-Gomm,Point May,NL,Newfoundland,2022,7,8,2022-07-08,"Not reported (details from summary email provided by Sabina Wilhelm July 15, 2022 ""RE: Bird mortalities near Cape St. Mary's likely associated with HPAI"")",,46.899622,-55.937704,RAZO,Razorbill,Alca torda,seabirds,presume_positive,,,,,Land,,,,5,5,,,5,CWHC,,,,,,"Point May, NL",46.89879,-55.9332,"46.9, -55.94",46.9,-55.94,,
MT-275,Stephanie Avery-Gomm,Point May,NL,Newfoundland,2022,7,8,2022-07-08,"Not reported (details from summary email provided by Sabina Wilhelm July 15, 2022 ""RE: Bird mortalities near Cape St. Mary's likely associated with HPAI"")",,46.899622,-55.937704,HERG,Herring Gull,Larus argentatus,seabirds,presume_positive,,,,,Land,,,,1,1,,,1,CWHC,,,,,,"Point May, NL",46.89879,-55.9332,"46.9, -55.94",46.9,-55.94,,
MT-276,Stephanie Avery-Gomm,Point May,NL,Newfoundland,2022,7,8,2022-07-08,"Not reported (details from summary email provided by Sabina Wilhelm July 15, 2022 ""RE: Bird mortalities near Cape St. Mary's likely associated with HPAI"")",,46.899622,-55.937704,GBBG,Great Black-backed Gull,Larus marinus,seabirds,presume_positive,,,,,Land,,,,2,2,,,2,CWHC,,,,,,"Point May, NL",46.89879,-55.9332,"46.9, -55.94",46.9,-55.94,,
MT-3387,TaniaBarychka,"Point May, Burin Peninsula",NL,Newfoundland,2022,7,8,2022-07-08,Karl Hodge,Bill_Montevecchi_Lab,46.89582,-55.93707,UNMU,Unknown Murre,Unknown Murre,seabirds,presume_positive,,,,,,,,0,Lots,Lots,,,,,,,,,"FB Dm, number of birds not specified, COMU/TBMU",,,,,,,TB015,
MT-277,Stephanie Avery-Gomm,Mobil Bay,NL,Newfoundland,2022,7,9,2022-07-09,Jeannine Winkel,,47.244741,-52.83,COMU,Common Murre,Uria aalge,seabirds,presume_positive,,,,,Water,,,0,1,1,,,,,,1,Photo,https://drive.google.com/file/d/1daPdzmEOdyAwyldCOZtniW4VsiZeXvDC/view?usp=sharing,"""One dead Murre in the middle of Mobile Bay. Other than that not many dead birds so far, just the odd dead chick on the water, as usual” Photo provided. https://007gc-my.sharepoint.com/:i:/g/personal/stephanie_avery-gomm_ec_gc_ca/Eec1MxBG0PtGi9mJcP0l9JoBmqVsCkNezEuJao4zziX4Ww?e=Fwlwjg","Mobil Bay, NL",47.242,-52.8247,"47.24, -52.83",47.24,-52.83,,
MT-5055,Tania Barychka,Avalon Peninsula-St. John's,NL,Newfoundland,2022,7,9,2022-07-09,ebird Apri -Sept 2022,S114771947,46.73071,-53.3691,LESP,Leach's Storm-Petrel,Hydrobates leucorhous,seabirds,presume_positive,,,,,Land,,,,1,1,,,,,,,,,"whole bird, freshly dead on grassy point between Fannys Pond and Trepassey Beach",,,,,,,S114771947,
MT-2104,Stephanie Avery-Gomm,Off Cape St. Mary's by boat (no coordinates),NL,Newfoundland,2022,7,10,2022-07-10,"Not reported (details from summary email provided by Sabina Wilhelm July 15, 2022 ""RE: Bird mortalities near Cape St. Mary's likely associated with HPAI"")",,46.816,-54.202,NOGA,Northern Gannet,Morus bassanus,seabirds,presume_positive,,,,,Land,,,,2,2,,,2,CWHC,,,,,,"Off Cape St. Mary's by boat (no coordinates), NL",46.82316,-54.1922,"46.82, -54.2",46.82,-54.2,,
MT-278,Tania Barychka,"Newfoundland and Labrador, Canada",NL,Newfoundland,2022,7,11,2022-07-11,iNaturalist,jasminepinksen,48.485455,-58.430188,NOGA,Northern Gannet,Morus bassanus,seabirds,presume_positive,,,,,Land,,,,1,1,,,,,,,,,,,,,,,,125807157,
MT-279,Tania Barychka,"Newfoundland and Labrador A0N, Canada",NL,Newfoundland,2022,7,11,2022-07-11,iNaturalist,jasminepinksen,48.469082,-58.43106,NOGA,Northern Gannet,Morus bassanus,seabirds,presume_positive,,,,,Land,,,,1,1,,,,,,,,,,,,,,,,125807347,
MT-280,Tania Barychka,"Barachois Brook, NL A0N 1B0, Canada",NL,Newfoundland,2022,7,11,2022-07-11,iNaturalist,jasminepinksen,48.466471,-58.431236,NOGA,Northern Gannet,Morus bassanus,seabirds,presume_positive,,,,,Land,,,,1,1,,,,,,,,,,,,,,,,125807405,
CT-28,Chris Ward,"Gull Island, Witless Bay",NL,Newfoundland,2022,7,11,2022-07-11,Chris Ward; Sabina Wilhelm,,47.256355,-52.776369,ATPU,Atlantic Puffin,Fratercula arctica,seabirds,presume_positive,,,,,Colony,Incidental Observation,Land,,1,1,,,,,,,,,,,,,,,,,
MT-281,Stephanie Avery-Gomm,Point La Haye,NL,Newfoundland,2022,7,12,2022-07-12,Wayne Humphries via Bill Montevecchi,,46.892143,-53.597749,UNMU,Unknown Murre,Unknown Murre,seabirds,presume_positive,,,,,Land,,,,10,10,,,,,,,,,"""Reports of dead murres (+ gannet and kittiwake) at Point La Haye this
 morning.""","Point La Haye, NL",46.89214,-53.5977,"46.89, -53.6",46.89,-53.6,,
MT-282,Stephanie Avery-Gomm,St Vincents,NL,Newfoundland,2022,7,12,2022-07-12,Wayne Humphries via Bill Montevecchi,,46.789008,-53.636836,UNMU,Unknown Murre,Unknown Murre,seabirds,presume_positive,,,,,Land,,,,7,7,,,,,,,,,"""Reports of dead murres (+ gannet and kittiwake) at Point La Haye this
 morning.""","St Vincents, NL",46.80029,-53.6368,"46.79, -53.64",46.79,-53.64,,
MT-283,Stephanie Avery-Gomm,Point La Haye,NL,Newfoundland,2022,7,12,2022-07-12,Bill Montevecchi - second hand,,46.892143,-53.597749,BLKI,Black-legged Kittiwake,Rissa tridactyla,seabirds,presume_positive,,,,,Land,,,,1,1,,,,,,,,,"""Reports of dead murres (+ gannet and kittiwake) at Point La Haye this
 morning.""","Point La Haye, NL",46.89214,-53.5977,"46.89, -53.6",46.89,-53.6,,
MT-284,Stephanie Avery-Gomm,Point La Haye,NL,Newfoundland,2022,7,12,2022-07-12,Bill Montevecchi - second hand,,46.892143,-53.597749,NOGA,Northern Gannet,Morus bassanus,seabirds,presume_positive,,,,,Land,,,,1,1,,,,,,,,,"""Reports of dead murres (+ gannet and kittiwake) at Point La Haye this
 morning.""","Point La Haye, NL",46.89214,-53.5977,"46.89, -53.6",46.89,-53.6,,
MT-3388,TaniaBarychka,Francois,NL,Newfoundland,2022,7,12,2022-07-12,"T Power, Adventure Canada Tour Boat",Bill_Montevecchi_Lab,47.57983,-56.74754,NOGA,Northern Gannet,Morus bassanus,seabirds,presume_positive,,,,,,,,4,0,4,,,,,,,,,Lethargic,,,,,,,TB016,
MT-3920,Tania Barychka,Point la Haye,NL,Newfoundland,2022,7,12,2022-07-12,Wayne Humphries via PP and C Ward,Chris Ward (ECCC),46.89214,-53.5977,UNMU,Unknown Murre,Unknown Murre,seabirds,presume_positive,,,,,Land,,,,8,8,,,,,,,,,,,,,,,,,
MT-3921,Tania Barychka,Point la Haye,NL,Newfoundland,2022,7,12,2022-07-12,Wayne Humphries via PP and C Ward,Chris Ward (ECCC),46.89214,-53.5977,UNSH,Unknown Shearwater,Unknown Shearwater,seabirds,presume_negative,,,,,Land,,,,2,2,,,,,,,,,,,,,,,,,
MT-3922,Tania Barychka,Point la Haye,NL,Newfoundland,2022,7,12,2022-07-12,Wayne Humphries via PP and C Ward,Chris Ward (ECCC),46.89214,-53.5977,NOGA,Northern Gannet,Morus bassanus,seabirds,presume_positive,,,,,Land,,,,1,1,,,,,,,,,,,,,,,,,
MT-3923,Tania Barychka,Point la Haye,NL,Newfoundland,2022,7,12,2022-07-12,Wayne Humphries via PP and C Ward,Chris Ward (ECCC),46.89214,-53.5977,BLKI,Black-legged Kittiwake,Rissa tridactyla,seabirds,presume_positive,,,,,Land,,,,1,1,,,,,,,,,,,,,,,,,
CT-163,Tania Barychka,"Green Island, Bay of Islands",NL,Newfoundland,2022,7,12,2022-07-12,Public,Matthew.English@ec.gc.ca,49.16314,-58.146014,GLGU,Glaucous Gull,Larus hyperboreus,seabirds,presume_positive,,,,,Colony,Incidental (during ARU pick up),Land/Boat,0,0,0,,,,,,,,,"0 Birds observed, dead or alive",,,,,,,,
MT-285,Stephanie Avery-Gomm,Branch,NL,Newfoundland,2022,7,13,2022-07-13,"Not reported (details from summary email provided by Sabina Wilhelm July 15, 2022 ""RE: Bird mortalities near Cape St. Mary's likely associated with HPAI"")",,46.882552,-53.947025,COMU,Common Murre,Uria aalge,seabirds,presume_positive,,,,,Land,,,,18,18,,,18 (only a proportion sent for testing as many were too far gone),CWHC,,,,,,"Branch, NL",46.88222,-53.953,"46.88, -53.95",46.88,-53.95,,
MT-286,Stephanie Avery-Gomm,Branch,NL,Newfoundland,2022,7,13,2022-07-13,"Not reported (details from summary email provided by Sabina Wilhelm July 15, 2022 ""RE: Bird mortalities near Cape St. Mary's likely associated with HPAI"")",,46.882552,-53.947025,NOGA,Northern Gannet,Morus bassanus,seabirds,presume_positive,,,,,Land,,,,2,2,,,2 (only a proportion sent for testing as many were too far gone),CWHC,,,,,,"Branch, NL",46.88222,-53.953,"46.88, -53.95",46.88,-53.95,,
MT-287,Stephanie Avery-Gomm,Branch,NL,Newfoundland,2022,7,13,2022-07-13,"Not reported (details from summary email provided by Sabina Wilhelm July 15, 2022 ""RE: Bird mortalities near Cape St. Mary's likely associated with HPAI"")",,46.882552,-53.947025,RAZO,Razorbill,Alca torda,seabirds,presume_positive,,,,,Land,,,,1,1,,,1 (only a proportion sent for testing as many were too far gone),CWHC,,,,,,"Branch, NL",46.88222,-53.953,"46.88, -53.95",46.88,-53.95,,
MT-288,Stephanie Avery-Gomm,Various - see comment field,NL,Newfoundland,2022,7,13,2022-07-13,"Not reported (details from summary email provided by Sabina Wilhelm July 15, 2022 ""RE: Bird mortalities near Cape St. Mary's likely associated with HPAI"")",,,,,,,,,,,,,Land,,,,_G,,,,,,,,,,"2022-07-13 email ""Bird mortalities near Cape St. Mary's likely associated with HPAI"" from Sabina says ""Just a heads up that things appear to be unfolding rather quickly with respect to sick and dead birds on beaches on the Burin and St. Mary’s Bay, which points to Cape St. Mary’s birds. Just to get everyone on the same page: last Friday, reports were received of about 35 sick and dead primarily common murres and a few razorbills at Point May, Burin Peninsula. Todd Hollett, conservation officer based out of Winterland, picked up about a dozen (mostly murres, a few razorbills, two herring gulls and a black-backed gull) on Friday and has kept them frozen for pick up. Yesterday, Bill Montevecchi received reports of dead murres, gannets, and kittiwakes at Point La Haye. Today, Todd called me to say that he has been receiving many reports of additional dead birds but many live/sick, primarly murres and razorbills, at other beaches on the Burin and on the water near Taylor’s Bay and Lamaline. Shortly after receiving this phone call, Chris Mooney from Cape St. Mary’s contacted Chris Ward to say that he picked up today 15 common murres, 1 razorbill and 2 gannets (including a 4 year old) found dead near Branch. Note that this information was relayed to us while we were driving together back from Gull Island, after picking up a live razorbill found on a Ferryland beach showing neurological symptoms (this bird was dropped off at Animal Health this afternoon and was received by Meg Baker, along with an immature puffin and puffin chick found dead on Gull Island). In response to these reports, we are planning the following for tomorrow:
 - Chris Ward along with David Iles and Fiona Le Taro will be travelling to Cape St. Mary’s to pick up the birds collected by Chris Mooney for testing, conduct some beached bird surveys in the area, and if weather permits, deploy a zodiac to access Golden Bay, which is an excellent catchment beach for the area, as suggested by Chris M.
 - I will meet up with Todd Hollett in Goobies in the morning to collect the frozen birds picked up by Todd on Friday for testing and subsequently will head to Point La Haye to do a beached bird survey there.""","Various - see comment field, NL",,,"0, 0",0,0,,
MT-3389,TaniaBarychka,Point la Haye,NL,Newfoundland,2022,7,13,2022-07-13,Wayne Humphries,Bill_Montevecchi_Lab,46.8922,-53.59775,NOGA,Northern Gannet,Morus bassanus,seabirds,presume_positive,,,,,,,,0,1,1,,,,,,,,,,,,,,,,TB017,
MT-3390,TaniaBarychka,St. Bride's,NL,Newfoundland,2022,7,13,2022-07-13,Chris Mooney,Bill_Montevecchi_Lab,46.91992,-54.17298,NOGA,Northern Gannet,Morus bassanus,seabirds,presume_positive,,,,,,,,0,1,1,,,,,,,,,,,,,,,,TB018,
MT-3391,TaniaBarychka,Lamaline,NL,Newfoundland,2022,7,13,2022-07-13,Todd Hollett,Bill_Montevecchi_Lab,46.86907,-55.80345,NOGA,Northern Gannet,Morus bassanus,seabirds,presume_positive,,,,,,,,0,Unknown,Unknown,,,,,,,,,,,,,,,,TB019,
MT-3392,TaniaBarychka,Lords Cove,NL,Newfoundland,2022,7,13,2022-07-13,Bob Hennebury,Bill_Montevecchi_Lab,46.88089,-55.67023,NOGA,Northern Gannet,Morus bassanus,seabirds,presume_positive,,,,,,,,0,6,6,,,,,,,,,,,,,,,,TB020,
MT-3393,TaniaBarychka,Lamaline,NL,Newfoundland,2022,7,13,2022-07-13,Bob Hennebury,Bill_Montevecchi_Lab,46.86907,-55.80345,NOGA,Northern Gannet,Morus bassanus,seabirds,presume_positive,,,,,,,,0,2,2,,,,,,,,,,,,,,,,TB021,
MT-3394,TaniaBarychka,Point la Haye,NL,Newfoundland,2022,7,13,2022-07-13,Wayne Humphries,Bill_Montevecchi_Lab,46.8922,-53.59775,COMU,Common Murre,Uria aalge,seabirds,presume_positive,,,,,,,,0,10,10,,,,,,,,,FB Dm,,,,,,,TB022,
MT-3395,TaniaBarychka,St. Vincents,NL,Newfoundland,2022,7,13,2022-07-13,Wayne Humphries,Bill_Montevecchi_Lab,46.80076,-53.63737,COMU,Common Murre,Uria aalge,seabirds,presume_positive,,,,,,,,0,7,7,,,,,,,,,FB Dm,,,,,,,TB023,
MT-3396,TaniaBarychka,Lords Cove,NL,Newfoundland,2022,7,13,2022-07-13,Bob Hennebury,Bill_Montevecchi_Lab,46.88089,-55.67023,UNMU,Unknown Murre,Unknown Murre,seabirds,presume_positive,,,,,,,,0,8,8,,,,,,,,,"FB Dm, COMU/TBMU",,,,,,,TB024,
MT-3397,TaniaBarychka,St. Bride's,NL,Newfoundland,2022,7,13,2022-07-13,Chris Mooney,Bill_Montevecchi_Lab,46.91992,-54.17298,UNMU,Unknown Murre,Unknown Murre,seabirds,presume_positive,,,,,,,,0,10,10,,,,,,,,,COMU/TBMU,,,,,,,TB025,
MT-3398,TaniaBarychka,Branch,NL,Newfoundland,2022,7,13,2022-07-13,Chris Mooney,Bill_Montevecchi_Lab,46.8833,-53.9587,UNMU,Unknown Murre,Unknown Murre,seabirds,presume_positive,,,,,,,,0,6,6,,,,,,,,,COMU/TBMU,,,,,,,TB026,
MT-3399,TaniaBarychka,Lamaline,NL,Newfoundland,2022,7,13,2022-07-13,Todd Hollett,Bill_Montevecchi_Lab,46.86907,-55.80345,UNMU,Unknown Murre,Unknown Murre,seabirds,presume_positive,,,,,,,,0,Unknown,Unknown,,,,,,,,,"collecting murre and razorbill carcasses for testing on, the beaches; dead gannets reported today and dead + dying long tailed off Lamaline, COMU/TBMU",,,,,,,TB027,
MT-3400,TaniaBarychka,Lamaline,NL,Newfoundland,2022,7,13,2022-07-13,Todd Hollett,Bill_Montevecchi_Lab,46.86907,-55.80345,RAZO,Razorbill,Alca torda,seabirds,presume_positive,,,,,,,,0,Unknown,Unknown,,,,,,,,,,,,,,,,TB028,
MT-3401,TaniaBarychka,Salt and Soal Cove,NL,Newfoundland,2022,7,13,2022-07-13,Kay Ebbing,Bill_Montevecchi_Lab,46.88156,-55.40012,ATPU,Atlantic Puffin,Fratercula arctica,seabirds,presume_positive,,,,,,,,0,Unknown,Unknown,,,,,,,,,,,,,,,,TB029,
MT-3402,TaniaBarychka,Salt and Soal Cove,NL,Newfoundland,2022,7,13,2022-07-13,Kay Ebbing,Bill_Montevecchi_Lab,46.88156,-55.40012,UNMU,Unknown Murre,Unknown Murre,seabirds,presume_positive,,,,,,,,0,Unknown,Unknown,,,,,,,,,"dead murres and puffins, COMU/TBMU",,,,,,,TB030,
MT-3403,TaniaBarychka,Point Verde,NL,Newfoundland,2022,7,13,2022-07-13,Jerome Mcgrath,Bill_Montevecchi_Lab,47.23164,-54.0025,COMU,Common Murre,Uria aalge,seabirds,presume_positive,,,,,,,,0,12,12,,,,,,,,,"Could be 14, fb dm",,,,,,,TB031,
MT-3404,TaniaBarychka,Golden Bay,NL,Newfoundland,2022,7,13,2022-07-13,Stan McGrath,Bill_Montevecchi_Lab,46.82288,-54.14797,UNMU,Unknown Murre,Unknown Murre,seabirds,presume_positive,,,,,,,,0,3,3,,,,,,,,,COMU/TBMU,,,,,,,TB032,
MT-3405,TaniaBarychka,St. Pierre,NL,Newfoundland,2022,7,13,2022-07-13,"T Power, Adventure Canada Tour Boat",Bill_Montevecchi_Lab,46.8852,-56.3159,UNMU,Unknown Murre,Unknown Murre,seabirds,presume_positive,,,,,,,,0,10,10,,,,,,,,,COMU/TBMU,,,,,,,TB033,
MT-3406,TaniaBarychka,Columbier,NL,Newfoundland,2022,7,13,2022-07-13,"T Power, Adventure Canada Tour Boat",Bill_Montevecchi_Lab,,,UNMU,Unknown Murre,Unknown Murre,seabirds,presume_positive,,,,,,,,,,,,,,,,,,,COMU/TBMU,,,,,,,TB034,
MT-3407,TaniaBarychka,"Herring Cove Beach, St. Lawrence Harbour",NL,Newfoundland,2022,7,13,2022-07-13,Debbie Edwards,Bill_Montevecchi_Lab,46.91026,-55.37769,UNMU,Unknown Murre,Unknown Murre,seabirds,presume_positive,,,,,Land,,,0,4,4,,,,,,,,,"Fresh, COMU/TBMU",,,,,,,TB035,
MT-3933,Tania Barychka,Francois,NL,Newfoundland,2022,7,13,2022-07-13,Brendan Kelly via Chris Ward,Chris Ward (ECCC),47.57991,-56.7464,UNBI,Unidentified Bird,"Aves (gen, sp)",unknown,presume_negative,,,,,Water,,,,0,0,,,,,,,,,while ferrying from Burgeo to Grey River to Francois and back,,,,,,,,
MT-289,Stephanie Avery-Gomm,Point La Haye,NL,Newfoundland,2022,7,14,2022-07-14,"Not reported (details from summary email provided by Sabina Wilhelm July 15, 2022 ""RE: Bird mortalities near Cape St. Mary's likely associated with HPAI"")",,46.892143,-53.597749,NOGA,Northern Gannet,Morus bassanus,seabirds,presume_positive,,,,,Land,,,,4,4,,,4,CWHC,,,,,,"Point La Haye, NL",46.89214,-53.5977,"46.89, -53.6",46.89,-53.6,,
MT-290,Stephanie Avery-Gomm,Point La Haye,NL,Newfoundland,2022,7,14,2022-07-14,"Not reported (details from summary email provided by Sabina Wilhelm July 15, 2022 ""RE: Bird mortalities near Cape St. Mary's likely associated with HPAI"")",,46.892143,-53.597749,COMU,Common Murre,Uria aalge,seabirds,presume_positive,,,,,Land,,,,7,7,,,4,CWHC,,,,,4 added by Stephanie was changed to 7 by Tania as per Sabina's Point La Haye summary July 14-22,"Point La Haye, NL",46.89214,-53.5977,"46.89, -53.6",46.89,-53.6,,
MT-291,Stephanie Avery-Gomm,Point La Haye,NL,Newfoundland,2022,7,14,2022-07-14,"Not reported (details from summary email provided by Sabina Wilhelm July 15, 2022 ""RE: Bird mortalities near Cape St. Mary's likely associated with HPAI"")",,46.892143,-53.597749,GRSH,Great Shearwater,Ardenna gravis,seabirds,presume_positive,,,,,Land,,,,1,1,,,1,CWHC,,,,,,"Point La Haye, NL",46.89214,-53.5977,"46.89, -53.6",46.89,-53.6,,
MT-292,Stephanie Avery-Gomm,Point Lance,NL,Newfoundland,2022,7,14,2022-07-14,"Not reported (details from summary email provided by Sabina Wilhelm July 15, 2022 ""RE: Bird mortalities near Cape St. Mary's likely associated with HPAI"")",,46.809459,-54.08,NOGA,Northern Gannet,Morus bassanus,seabirds,presume_positive,,,,,Land,,,,2,2,,,2,CWHC,,,,,,"Point Lance, NL",46.81332,-54.0837,"46.81, -54.08",46.81,-54.08,,
MT-293,Stephanie Avery-Gomm,Point Lance,NL,Newfoundland,2022,7,14,2022-07-14,"Not reported (details from summary email provided by Sabina Wilhelm July 15, 2022 ""RE: Bird mortalities near Cape St. Mary's likely associated with HPAI"")",,46.809459,-54.08,COMU,Common Murre,Uria aalge,seabirds,presume_positive,,,,,Land,,,,9,9,,,9,CWHC,,,,,,"Point Lance, NL",46.81332,-54.0837,"46.81, -54.08",46.81,-54.08,,
MT-294,Stephanie Avery-Gomm,Point Lance,NL,Newfoundland,2022,7,14,2022-07-14,"Not reported (details from summary email provided by Sabina Wilhelm July 15, 2022 ""RE: Bird mortalities near Cape St. Mary's likely associated with HPAI"")",,46.809459,-54.08,RAZO,Razorbill,Alca torda,seabirds,presume_positive,,,,,Land,,,,1,1,,,1,CWHC,,,,,,"Point Lance, NL",46.81332,-54.0837,"46.81, -54.08",46.81,-54.08,,
MT-295,Stephanie Avery-Gomm,Point Lance,NL,Newfoundland,2022,7,14,2022-07-14,"Not reported (details from summary email provided by Sabina Wilhelm July 15, 2022 ""RE: Bird mortalities near Cape St. Mary's likely associated with HPAI"")",,46.809459,-54.08,DOVE,Dovekie,Alle alle,seabirds,presume_positive,,,,,Land,,,,1,1,,,1,CWHC,,,,,,"Point Lance, NL",46.81332,-54.0837,"46.81, -54.08",46.81,-54.08,,
MT-296,Matthew English,Point La Haye,NL,Newfoundland,2022,7,14,2022-07-14,Gerald White,,46.892143,-53.597749,COMU,Common Murre,Uria aalge,seabirds,presume_positive,,,,,Land,,,10,10,20,0,0,,,,1,Photo,https://drive.google.com/file/d/1V8fs5NWJMyca-hW4mzay_8HNAtPRAdPP/view?usp=sharing,"A mix of live and dead birds, primarily COMU based on Sabina's correspondence.","Point La Haye, NL",46.89214,-53.5977,"46.89, -53.6",46.89,-53.6,,
MT-297,Tania Barychka,"Point La Haye, NL",NL,Newfoundland,2022,7,14,2022-07-14,Point L Haye Summary - Sabina W.; conducted by CWS,,46.89214,-53.5977,ATPU,Atlantic Puffin,Fratercula arctica,seabirds,presume_positive,,,,,Land,,,,1,1,,,,,,,,,,,,,,,,,
MT-3408,TaniaBarychka,Point Lance,NL,Newfoundland,2022,7,14,2022-07-14,Noah Careen,Bill_Montevecchi_Lab,46.81375,-54.08388,NOGA,Northern Gannet,Morus bassanus,seabirds,presume_positive,,,,,,,,0,1,1,,,,,,,,,,,,,,,,TB036,
MT-3409,TaniaBarychka,Point Lance,NL,Newfoundland,2022,7,14,2022-07-14,Noah Careen,Bill_Montevecchi_Lab,46.81375,-54.08388,UNMU,Unknown Murre,Unknown Murre,seabirds,presume_positive,,,,,,,,0,14,14,,,,,,,,,COMU/TBMU,,,,,,,TB037,
MT-3410,TaniaBarychka,Point Lance,NL,Newfoundland,2022,7,14,2022-07-14,Noah Careen,Bill_Montevecchi_Lab,46.81375,-54.08388,ATPU,Atlantic Puffin,Fratercula arctica,seabirds,presume_positive,,,,,,,,0,1,1,,,,,,,,,,,,,,,,TB038,
MT-3411,TaniaBarychka,Point Lance,NL,Newfoundland,2022,7,14,2022-07-14,Noah Careen,Bill_Montevecchi_Lab,46.81375,-54.08388,RAZO,Razorbill,Alca torda,seabirds,presume_positive,,,,,,,,0,1,1,,,,,,,,,,,,,,,,TB039,
MT-3412,TaniaBarychka,Point Lance,NL,Newfoundland,2022,7,14,2022-07-14,Noah Careen,Bill_Montevecchi_Lab,46.81375,-54.08388,HERG,Herring Gull,Larus argentatus,seabirds,presume_positive,,,,,,,,0,1,1,,,,,,,,,,,,,,,,TB040,
MT-3924,Tania Barychka,Point Lance,NL,Newfoundland,2022,7,14,2022-07-14,Noah Careen via PP and C Ward,Chris Ward (ECCC),46.81332,-54.0837,UNMU,Unknown Murre,Unknown Murre,seabirds,presume_positive,,,,,Land,,,,10,10,,,,,,,,,,,,,,,,,
MT-3925,Tania Barychka,Point Lance,NL,Newfoundland,2022,7,14,2022-07-14,Noah Careen via PP and C Ward,Chris Ward (ECCC),46.81332,-54.0837,UNMU,Unknown Murre,Unknown Murre,seabirds,presume_positive,,,,,Land,,,1,,1,,,,,,,,,,,,,,,,,
MT-3926,Tania Barychka,Point Lance,NL,Newfoundland,2022,7,14,2022-07-14,Noah Careen via PP and C Ward,Chris Ward (ECCC),46.81332,-54.0837,ATPU,Atlantic Puffin,Fratercula arctica,seabirds,presume_positive,,,,,Land,,,,1,1,,,,,,,,,,,,,,,,,
MT-3927,Tania Barychka,Point Lance,NL,Newfoundland,2022,7,14,2022-07-14,Noah Careen via PP and C Ward,Chris Ward (ECCC),46.81332,-54.0837,NOGA,Northern Gannet,Morus bassanus,seabirds,presume_positive,,,,,Land,,,,1,1,,,,,,,,,,,,,,,,,
MT-3928,Tania Barychka,Point Lance,NL,Newfoundland,2022,7,14,2022-07-14,Noah Careen via PP and C Ward,Chris Ward (ECCC),46.81332,-54.0837,NOGA,Northern Gannet,Morus bassanus,seabirds,presume_positive,,,,,Land,,,1,,1,,,,,,,,,,,,,,,,,
CT-19,Chris Ward,Cape St Marys,NL,Newfoundland,2022,7,14,2022-07-14,Chris Ward,ECCC,46.83,-54.2,COMU,Common Murre,Uria aalge,seabirds,presume_positive,,,,,Colony,Incidental Observation,Boat,2,4,6,0,0,0,,,,,,Survey around waters around CSM - Saint Brides to Golden Bay. Count of birds left in water (birds retrieved captured elsewhere),,,,,,,,
MT-298,Stephanie Avery-Gomm,Shoal Cove (St. Lawrence),NL,Newfoundland,2022,7,15,2022-07-15,"Todd Hollet, Conservation officer III, Forest and Wildlife Branch, Dept of Fisheries, Forest and Agriculture, NL Gov.",Toddhollett@gov.nl.ca,46.882758,-55.40073,UNMU,Unknown Murre,Unknown Murre,seabirds,presume_positive,,,,,Land,,,,24,24,,,,,,,,,,"Shoal Cove (St. Lawrence), NL",48.86857,-53.6639,"46.88, -55.4",46.88,-55.4,,
MT-299,Stephanie Avery-Gomm,Shoal Cove (St. Lawrence),NL,Newfoundland,2022,7,15,2022-07-15,"Todd Hollet, Conservation officer III, Forest and Wildlife Branch, Dept of Fisheries, Forest and Agriculture, NL Gov.",Toddhollett@gov.nl.ca,46.882758,-55.40073,RAZO,Razorbill,Alca torda,seabirds,presume_positive,,,,,Land,,,,5,5,,,,,,,,,,"Shoal Cove (St. Lawrence), NL",48.86857,-53.6639,"46.88, -55.4",46.88,-55.4,,
MT-300,Stephanie Avery-Gomm,Shoal Cove (St. Lawrence),NL,Newfoundland,2022,7,15,2022-07-15,"Todd Hollet, Conservation officer III, Forest and Wildlife Branch, Dept of Fisheries, Forest and Agriculture, NL Gov.",Toddhollett@gov.nl.ca,46.882758,-55.40073,ATPU,Atlantic Puffin,Fratercula arctica,seabirds,presume_positive,,,,,Land,,,,2,2,,2,2,,,,,,,"Shoal Cove (St. Lawrence), NL",48.86857,-53.6639,"46.88, -55.4",46.88,-55.4,,
MT-301,Stephanie Avery-Gomm,Shoal Cove (St. Lawrence),NL,Newfoundland,2022,7,15,2022-07-15,"Todd Hollet, Conservation officer III, Forest and Wildlife Branch, Dept of Fisheries, Forest and Agriculture, NL Gov.",Toddhollett@gov.nl.ca,46.882758,-55.40073,DOVE,Dovekie,Alle alle,seabirds,presume_positive,,,,,Land,,,,1,1,,1,1,,,,,,,"Shoal Cove (St. Lawrence), NL",48.86857,-53.6639,"46.88, -55.4",46.88,-55.4,,
MT-302,Stephanie Avery-Gomm,Shoal Cove (St. Lawrence),NL,Newfoundland,2022,7,15,2022-07-15,"Todd Hollet, Conservation officer III, Forest and Wildlife Branch, Dept of Fisheries, Forest and Agriculture, NL Gov.",Toddhollett@gov.nl.ca,46.882758,-55.40073,UNSH,Unknown Shearwater,Unknown Shearwater,seabirds,presume_negative,,,,,Land,,,,2,2,,2,2,,,,,,,"Shoal Cove (St. Lawrence), NL",48.86857,-53.6639,"46.88, -55.4",46.88,-55.4,,
MT-303,Stephanie Avery-Gomm,Salt Cove (St. Lawrence),NL,Newfoundland,2022,7,15,2022-07-15,"Todd Hollet, Conservation officer III, Forest and Wildlife Branch, Dept of Fisheries, Forest and Agriculture, NL Gov.",Toddhollett@gov.nl.ca,46.880383,-55.420846,UNMU,Unknown Murre,Unknown Murre,seabirds,presume_positive,,,,,Land,,,,24,24,,,,,,,,,,"Salt Cove (St. Lawrence) , NL",46.87839,-55.4204,"46.88, -55.42",46.88,-55.42,,
MT-304,Stephanie Avery-Gomm,Salt Cove (St. Lawrence),NL,Newfoundland,2022,7,15,2022-07-15,"Todd Hollet, Conservation officer III, Forest and Wildlife Branch, Dept of Fisheries, Forest and Agriculture, NL Gov.",Toddhollett@gov.nl.ca,46.880383,-55.420846,RAZO,Razorbill,Alca torda,seabirds,presume_positive,,,,,Land,,,,5,5,,,,,,,,,,"Salt Cove (St. Lawrence) , NL",46.87839,-55.4204,"46.88, -55.42",46.88,-55.42,,
MT-305,Stephanie Avery-Gomm,Salt Cove (St. Lawrence),NL,Newfoundland,2022,7,15,2022-07-15,"Todd Hollet, Conservation officer III, Forest and Wildlife Branch, Dept of Fisheries, Forest and Agriculture, NL Gov.",Toddhollett@gov.nl.ca,46.880383,-55.420846,ATPU,Atlantic Puffin,Fratercula arctica,seabirds,presume_positive,,,,,Land,,,,1,1,,1,1,,,,,,,"Salt Cove (St. Lawrence) , NL",46.87839,-55.4204,"46.88, -55.42",46.88,-55.42,,
MT-306,Stephanie Avery-Gomm,Lawn,NL,Newfoundland,2022,7,15,2022-07-15,"Todd Hollet, Conservation officer III, Forest and Wildlife Branch, Dept of Fisheries, Forest and Agriculture, NL Gov.",Toddhollett@gov.nl.ca,46.865415,-55.807722,RAZO,Razorbill,Alca torda,seabirds,presume_positive,,,,,Land,,,,1,1,,,,,,,,,,"Lawn, NL",46.9468,-55.5447,"46.87, -55.81",46.87,-55.81,,
MT-307,Stephanie Avery-Gomm,Lord's Cove,NL,Newfoundland,2022,7,15,2022-07-15,"Todd Hollet, Conservation officer III, Forest and Wildlife Branch, Dept of Fisheries, Forest and Agriculture, NL Gov.",Toddhollett@gov.nl.ca,46.88,-55.66,UNMU,Unknown Murre,Unknown Murre,seabirds,presume_positive,,,,,Land,,,,4,4,,,,,,,,,,"Lord's Cove, NL",,,"46.88, -55.66",46.88,-55.66,,
MT-308,Stephanie Avery-Gomm,Taylor's Bay,NL,Newfoundland,2022,7,15,2022-07-15,"Todd Hollet, Conservation officer III, Forest and Wildlife Branch, Dept of Fisheries, Forest and Agriculture, NL Gov.",Toddhollett@gov.nl.ca,46.879329,-55.717573,UNMU,Unknown Murre,Unknown Murre,seabirds,presume_positive,,,,,Land,,,,22,22,,,,,,,,,,"Taylor's Bay, NL",46.88333,-55.7333,"46.88, -55.72",46.88,-55.72,,
MT-309,Stephanie Avery-Gomm,Taylor's Bay,NL,Newfoundland,2022,7,15,2022-07-15,"Todd Hollet, Conservation officer III, Forest and Wildlife Branch, Dept of Fisheries, Forest and Agriculture, NL Gov.",Toddhollett@gov.nl.ca,46.879329,-55.717573,NOGA,Northern Gannet,Morus bassanus,seabirds,presume_positive,,,,,Land,,,,1,1,,,,,,,,,,"Taylor's Bay, NL",46.88333,-55.7333,"46.88, -55.72",46.88,-55.72,,
MT-310,Stephanie Avery-Gomm,Taylor's Bay,NL,Newfoundland,2022,7,15,2022-07-15,"Todd Hollet, Conservation officer III, Forest and Wildlife Branch, Dept of Fisheries, Forest and Agriculture, NL Gov.",Toddhollett@gov.nl.ca,46.879329,-55.717573,RAZO,Razorbill,Alca torda,seabirds,presume_positive,,,,,Land,,,,7,7,,,,,,,,,,"Taylor's Bay, NL",46.88333,-55.7333,"46.88, -55.72",46.88,-55.72,,
MT-311,Stephanie Avery-Gomm,Taylor's Bay,NL,Newfoundland,2022,7,15,2022-07-15,"Todd Hollet, Conservation officer III, Forest and Wildlife Branch, Dept of Fisheries, Forest and Agriculture, NL Gov.",Toddhollett@gov.nl.ca,46.879329,-55.717573,DOVE,Dovekie,Alle alle,seabirds,presume_positive,,,,,Land,,,,1,1,,1,1,,,,,,,"Taylor's Bay, NL",46.88333,-55.7333,"46.88, -55.72",46.88,-55.72,,
MT-312,Stephanie Avery-Gomm,Beach near Lamaline,NL,Newfoundland,2022,7,15,2022-07-15,"Todd Hollet, Conservation officer III, Forest and Wildlife Branch, Dept of Fisheries, Forest and Agriculture, NL Gov.",Toddhollett@gov.nl.ca,46.86116,-55.810859,UNMU,Unknown Murre,Unknown Murre,seabirds,presume_positive,,,,,Land,,,,11,11,,,,,,,,,,"Beach near Lamaline, NL",46.86895,-55.8033,"46.86, -55.81",46.86,-55.81,,
MT-313,Stephanie Avery-Gomm,Calmer,NL,Newfoundland,2022,7,15,2022-07-15,"Todd Hollet, Conservation officer III, Forest and Wildlife Branch, Dept of Fisheries, Forest and Agriculture, NL Gov.",Toddhollett@gov.nl.ca,46.89126,-55.899048,UNMU,Unknown Murre,Unknown Murre,seabirds,presume_positive,,,,,Land,,,,10,10,,,,,,,,,,"Calmer, NL",,,"46.89, -55.9",46.89,-55.9,,
MT-314,Stephanie Avery-Gomm,Calmer,NL,Newfoundland,2022,7,15,2022-07-15,"Todd Hollet, Conservation officer III, Forest and Wildlife Branch, Dept of Fisheries, Forest and Agriculture, NL Gov.",Toddhollett@gov.nl.ca,46.89126,-55.899048,HERG,Herring Gull,Larus argentatus,seabirds,presume_positive,,,,,Land,,,,1,1,,,,,,,,,,"Calmer, NL",,,"46.89, -55.9",46.89,-55.9,,
MT-315,Stephanie Avery-Gomm,Calmer,NL,Newfoundland,2022,7,15,2022-07-15,"Todd Hollet, Conservation officer III, Forest and Wildlife Branch, Dept of Fisheries, Forest and Agriculture, NL Gov.",Toddhollett@gov.nl.ca,46.89126,-55.899048,NOGA,Northern Gannet,Morus bassanus,seabirds,presume_positive,,,,,Land,,,,1,1,,,,,,,,,,"Calmer, NL",,,"46.89, -55.9",46.89,-55.9,,
MT-316,Stephanie Avery-Gomm,Calmer,NL,Newfoundland,2022,7,15,2022-07-15,"Todd Hollet, Conservation officer III, Forest and Wildlife Branch, Dept of Fisheries, Forest and Agriculture, NL Gov.",Toddhollett@gov.nl.ca,46.89126,-55.899048,RAZO,Razorbill,Alca torda,seabirds,presume_positive,,,,,Land,,,,2,2,,,,,,,,,,"Calmer, NL",,,"46.89, -55.9",46.89,-55.9,,
MT-317,Stephanie Avery-Gomm,Mobil Bay,NL,Newfoundland,2022,7,15,2022-07-15,Jeannine Winkel,,47.244741,-52.83,RAZO,Razorbill,Alca torda,seabirds,presume_positive,,,,,Land,,,3,1,4,,0,,,,,,,Jeannine Winkel has been making daily observations in the Witless Bay area since June 18... a sudden increase in mortality today.,"Mobil Bay, NL",47.242,-52.8247,"47.24, -52.83",47.24,-52.83,,
MT-318,Stephanie Avery-Gomm,Mobil Bay,NL,Newfoundland,2022,7,15,2022-07-15,Jeannine Winkel,,47.244741,-52.83,UNMU,Unknown Murre,Unknown Murre,seabirds,presume_positive,,,,,Land,,,7,8,15,,0,,,,,,,Jeannine Winkel has been making daily observations in the Witless Bay area since June 18... a sudden increase in mortality today.,"Mobil Bay, NL",47.242,-52.8247,"47.24, -52.83",47.24,-52.83,,
MT-319,Stephanie Avery-Gomm,Mobil Bay,NL,Newfoundland,2022,7,15,2022-07-15,Jeannine Winkel,,47.244741,-52.83,SOSH,Sooty Shearwater,Ardenna grisea,seabirds,presume_negative,,,,,Land,,,,1,1,,0,,,,,,,Jeannine Winkel has been making daily observations in the Witless Bay area since June 18... a sudden increase in mortality today.,"Mobil Bay, NL",47.242,-52.8247,"47.24, -52.83",47.24,-52.83,,
MT-3413,TaniaBarychka,Witless Bay,NL,Newfoundland,2022,7,15,2022-07-15,Jeannine Winkel,Bill_Montevecchi_Lab,47.28286,-52.83255,COMU,Common Murre,Uria aalge,seabirds,presume_positive,,,,,,,,7,8,15,,,,,,,,,Sick,,,,,,,TB041,
MT-3414,TaniaBarychka,Witless Bay,NL,Newfoundland,2022,7,15,2022-07-15,Jeannine Winkel,Bill_Montevecchi_Lab,47.28286,-52.83255,RAZO,Razorbill,Alca torda,seabirds,presume_positive,,,,,,,,3,0,3,,,,,,,,,Sick,,,,,,,TB042,
MT-3415,TaniaBarychka,Witless Bay,NL,Newfoundland,2022,7,15,2022-07-15,Jeannine Winkel,Bill_Montevecchi_Lab,47.28286,-52.83255,SOSH,Sooty Shearwater,Ardenna grisea,seabirds,presume_negative,,,,,,,,0,1,1,,,,,,,,,,,,,,,,TB043,
MT-3416,TaniaBarychka,Point May to Lords Cove,NL,Newfoundland,2022,7,15,2022-07-15,Bob Hennebury,Bill_Montevecchi_Lab,46.88089,-55.67023,UNMU,Unknown Murre,Unknown Murre,seabirds,presume_positive,,,,,,,,0,237,237,,,,,,,,,"ATV Survey 22 km, COMU/TBMU",,,,,,,TB044,
MT-3417,TaniaBarychka,Point May to Lords Cove,NL,Newfoundland,2022,7,15,2022-07-15,Bob Hennebury,Bill_Montevecchi_Lab,46.88089,-55.67023,NOGA,Northern Gannet,Morus bassanus,seabirds,presume_positive,,,,,,,,0,7,7,,,,,,,,,ATV Survey 22 km,,,,,,,TB045,
MT-3418,TaniaBarychka,Point May to Lords Cove,NL,Newfoundland,2022,7,15,2022-07-15,Bob Hennebury,Bill_Montevecchi_Lab,46.88089,-55.67023,ATPU,Atlantic Puffin,Fratercula arctica,seabirds,presume_positive,,,,,,,,0,6,6,,,,,,,,,"ATV Survey 22 km,",,,,,,,TB046,
MT-3419,TaniaBarychka,Point May to Lords Cove,NL,Newfoundland,2022,7,15,2022-07-15,Bob Hennebury,Bill_Montevecchi_Lab,46.88089,-55.67023,RAZO,Razorbill,Alca torda,seabirds,presume_positive,,,,,,,,0,some,some,,,,,,,,,"ATV Survey 22 km, number of birds not specified",,,,,,,TB047,
MT-3420,TaniaBarychka,Southside Road to Fort Amherst,NL,Newfoundland,2022,7,15,2022-07-15,Mohmmad Fahmy,Bill_Montevecchi_Lab,47.56395,-52.68266,LESP,Leach's Storm-Petrel,Hydrobates leucorhous,seabirds,presume_positive,,,,,,,,0,1,1,,,,,,,,,,,,,,,,TB048,
MT-3421,TaniaBarychka,Cape Shore,NL,Newfoundland,2022,7,15,2022-07-15,Bill Montevecchi,Bill_Montevecchi_Lab,48.67472,-53.10034,LESP,Leach's Storm-Petrel,Hydrobates leucorhous,seabirds,presume_positive,,,,,,,,0,2,2,,,,,,,,,,,,,,,,TB049,
MT-3422,TaniaBarychka,St. Lawrence to Point May,NL,Newfoundland,2022,7,15,2022-07-15,Todd Hollett,Bill_Montevecchi_Lab,46.88156,-55.40012,UNBI,Unidentified Bird,"Aves (gen, sp)",unknown,presume_negative,,,,,,,,0,152,152,,,,,,,,,"ATPU/NOGA/TBMU/COMU/RAZO/GRSH, MIXD",,,,,,,TB050,
MT-3423,TaniaBarychka,Chance Cove,NL,Newfoundland,2022,7,15,2022-07-15,Mike Berry,Bill_Montevecchi_Lab,47.68539,-53.82178,BAEA,Bald Eagle,Haliaeetus leucocephalus,raptors,presume_positive,,,,,,,,0,1,1,,,,,,,,,,,,,,,,TB051,
MT-3929,Tania Barychka,Mobile,NL,Newfoundland,2022,7,15,2022-07-15,Jeannine Winkel via PP and C Ward,Chris Ward (ECCC),47.24489,-52.841,RAZO,Razorbill,Alca torda,seabirds,presume_positive,,,,,Land,,,,1,1,,,,,,,,,,,,,,,,,
MT-3930,Tania Barychka,Mobile,NL,Newfoundland,2022,7,15,2022-07-15,Jeannine Winkel via PP and C Ward,Chris Ward (ECCC),47.24489,-52.841,UNMU,Unknown Murre,Unknown Murre,seabirds,presume_positive,,,,,Land,,,,5,5,,,,,,,,,,,,,,,,,
MT-3931,Tania Barychka,Mobile,NL,Newfoundland,2022,7,15,2022-07-15,Jeannine Winkel via PP and C Ward,Chris Ward (ECCC),47.24489,-52.841,UNMU,Unknown Murre,Unknown Murre,seabirds,presume_positive,,,,,Land,,,5,,5,,,,,,,,,,,,,,,,,
MT-5086,Tania Barychka,Entrance to Mobile Bay and Tinker's Point,NL,Newfoundland,2022,7,15,2022-07-15,Bill_Montevecchi_Lab_20220112,Jeannine Winkel,47.4655,-52.6685,RAZO,Razorbill,Alca torda,seabirds,presume_positive,,,,,Sea,,,3,0,3,,,,,,,,,"Very sick. Used Tinker's Point for geolocation, poss confusion with 'Motion Bay'? (TB)",,,,,,,TB365,
MT-5087,Tania Barychka,Entrance to Mobile Bay and Tinker's Point,NL,Newfoundland,2022,7,15,2022-07-15,Bill_Montevecchi_Lab_20220112,Jeannine Winkel,47.4655,-52.6685,SOSH,Sooty Shearwater,Ardenna grisea,seabirds,presume_negative,,,,,Sea,,,0,1,1,,,,,,,,,"Used Tinker's Point for geolocation, poss confusion with 'Motion Bay'? (TB)",,,,,,,TB366,
MT-320,Matthew English,Bird Cove,NL,Newfoundland,2022,7,16,2022-07-16,Chris Mooney,,51.059251,-56.921996,UNMU,Unknown Murre,Unknown Murre,seabirds,presume_positive,,,,,Water,,,,188,188,0,0,,,,,,,"Likely birds were on the water, but unsure.","Bird Cove, NL",51.052,-56.9309,"51.06, -56.92",51.06,-56.92,,
MT-321,Matthew English,Bird Cove,NL,Newfoundland,2022,7,16,2022-07-16,Chris Mooney,,51.059251,-56.921996,NOGA,Northern Gannet,Morus bassanus,seabirds,presume_positive,,,,,Water,,,,18,18,0,0,,,,,,,"Likely birds were on the water, but unsure.","Bird Cove, NL",51.052,-56.9309,"51.06, -56.92",51.06,-56.92,,
MT-322,Matthew English,St. Vincent's,NL,Newfoundland,2022,7,16,2022-07-16,Paul Molloy,,46.789008,-53.636836,UNMU,Unknown Murre,Unknown Murre,seabirds,presume_positive,,,,,Land,,,,25,25,0,0,,,,,,,,"St. Vincent's, NL",46.76471,-53.5924,"46.79, -53.64",46.79,-53.64,,
MT-323,Stephanie Avery-Gomm,Gooseberry Cove Beach,NL,Newfoundland,2022,7,16,2022-07-16,Public,Matthew.English@ec.gc.ca,47.070464,-54.093611,UNBI,Unidentified Bird,"Aves (gen, sp)",unknown,presume_negative,,,,,Land,,,,4,4,,,,,,,,,,,,,,,,,
MT-324,Tania Barychka,"Portugal Cove South, NL",NL,Newfoundland,2022,7,16,2022-07-16,"Rodney Coombs, lighthouse keeper via Tony Power (gov.nl)",,46.71414,-53.2547,UNMU,Unknown Murre,Unknown Murre,seabirds,presume_positive,,,,,Land,,,,30,30,,,,,,,,,,,,,,,,,
MT-325,Tania Barychka,"Portugal Cove South, NL",NL,Newfoundland,2022,7,16,2022-07-16,"Rodney Coombs, lighthouse keeper via Tony Power (gov.nl)",,46.71414,-53.2547,NOGA,Northern Gannet,Morus bassanus,seabirds,presume_positive,,,,,Land,,,,4,4,,,,,,,,,,,,,,,,,
MT-326,Tania Barychka,"Portugal Cove South, NL",NL,Newfoundland,2022,7,16,2022-07-16,"Rodney Coombs, lighthouse keeper via Tony Power (gov.nl)",,46.71414,-53.2547,RAZO,Razorbill,Alca torda,seabirds,presume_positive,,,,,Land,,,,1,1,,,,,,,,,fresh,,,,,,,,
MT-3424,TaniaBarychka,St. Paul's Beach,NL,Newfoundland,2022,7,16,2022-07-16,Michael Burznyski,Bill_Montevecchi_Lab,49.85201,-57.80554,NOGA,Northern Gannet,Morus bassanus,seabirds,presume_positive,,,,,,,,0,1,1,,,,,,,,,,,,,,,,TB053,
MT-3425,TaniaBarychka,Exploits Bay,NL,Newfoundland,2022,7,16,2022-07-16,Kyle Mercer,Bill_Montevecchi_Lab,49.41002,-55.10866,UNBI,Unidentified Bird,"Aves (gen, sp)",unknown,presume_negative,,,,,,,,2,0,2,,,,,,,,,"Neurological problems, GULL UNKNOWN",,,,,,,TB054,
MT-3426,TaniaBarychka,St. Lawrence,NL,Newfoundland,2022,7,16,2022-07-16,Cass Clarke,Bill_Montevecchi_Lab,46.88156,-55.40012,UNMU,Unknown Murre,Unknown Murre,seabirds,presume_positive,,,,,,,,0,50,50,,,,,,,,,"conservative estimate, mostly murres, COMU/TBMU",,,,,,,TB055,
MT-3932,Tania Barychka,St Lawrence,NL,Newfoundland,2022,7,16,2022-07-16,Ryan Roul via PP and C Ward,Chris Ward (ECCC),46.92517,-55.3952,UNMU,Unknown Murre,Unknown Murre,seabirds,presume_positive,,,,,Land,,,,150,150,,,,,,,,,100-150 dead turrs along the coast from lawn to St Lawrence,,,,,,,,
MT-5053,Tania Barychka,St. George's-Stephenville,NL,Newfoundland,2022,7,16,2022-07-16,ebird Apri -Sept 2022,S115220594,48.55086,-58.6349,PUFI,Purple Finch,Haemorhous purpureus,landbirds,presume_negative,,,,,,,,,1,1,,,,,,,,,1 deceased.,,,,,,,S115220594,
MT-327,Stephanie Avery-Gomm,Point May to Lord's Cove (22 km via ATV),NL,Newfoundland,2022,7,17,2022-07-17,Bob Hennebery via Bill Montevecchi,,46.899622,-55.937704,UNMU,Unknown Murre,Unknown Murre,seabirds,presume_positive,,,,,Land,,,,233,233,,0,,,,,,,"Number estimated from account: ""just E of Pt May to Lord's Cove 22 km by ATV - Bob Hennebery counted 257 birds of varying ages mostly murres, 7 - 8 gannets, 7 - 8 gulls, puffins ...""","Point May to Lord's Cove (22 km via ATV) , NL",46.88081,-55.6701,"46.9, -55.94",46.9,-55.94,,
MT-328,Stephanie Avery-Gomm,Point May to Lord's Cove (22 km via ATV),NL,Newfoundland,2022,7,17,2022-07-17,Bob Hennebery via Bill Montevecchi,,46.899622,-55.937704,NOGA,Northern Gannet,Morus bassanus,seabirds,presume_positive,,,,,Land,,,,8,8,,0,,,,,,,"Number estimated from account: ""just E of Pt May to Lord's Cove 22 km by ATV - Bob Hennebery counted 257 birds of varying ages mostly murres, 7 - 8 gannets, 7 - 8 gulls, puffins ...""","Point May to Lord's Cove (22 km via ATV) , NL",46.88081,-55.6701,"46.9, -55.94",46.9,-55.94,,
MT-329,Stephanie Avery-Gomm,Point May to Lord's Cove (22 km via ATV),NL,Newfoundland,2022,7,17,2022-07-17,Bob Hennebery via Bill Montevecchi,,46.899622,-55.937704,UNGU,Unknown Gull,Unknown Gull,seabirds,presume_positive,,,,,Land,,,,8,8,,0,,,,,,,"Number estimated from account: ""just E of Pt May to Lord's Cove 22 km by ATV - Bob Hennebery counted 257 birds of varying ages mostly murres, 7 - 8 gannets, 7 - 8 gulls, puffins ...""","Point May to Lord's Cove (22 km via ATV) , NL",46.88081,-55.6701,"46.9, -55.94",46.9,-55.94,,
MT-330,Stephanie Avery-Gomm,Point May to Lord's Cove (22 km via ATV),NL,Newfoundland,2022,7,17,2022-07-17,Bob Hennebery via Bill Montevecchi,,46.899622,-55.937704,ATPU,Atlantic Puffin,Fratercula arctica,seabirds,presume_positive,,,,,Land,,,,10,10,,0,,,,,,,"Number estimated from account: ""just E of Pt May to Lord's Cove 22 km by ATV - Bob Hennebery counted 257 birds of varying ages mostly murres, 7 - 8 gannets, 7 - 8 gulls, puffins ...""","Point May to Lord's Cove (22 km via ATV) , NL",46.88081,-55.6701,"46.9, -55.94",46.9,-55.94,,
MT-331,Stephanie Avery-Gomm,Point Lance Beach (whole beach surveyed),NL,Newfoundland,2022,7,17,2022-07-17,Kyle d'Entremont and Bill Montevecchi,ky927448@dal.ca,46.809459,-54.08,COMU,Common Murre,Uria aalge,seabirds,presume_positive,,,Adult,Breeding,Land,,,,37,37,,0,,,,,,,,"Point Lance Beach (whole beach surveyed), NL",46.81008,-54.0877,"46.81, -54.08",46.81,-54.08,,
MT-332,Stephanie Avery-Gomm,Point Lance Beach (whole beach surveyed),NL,Newfoundland,2022,7,17,2022-07-17,Kyle d'Entremont and Bill Montevecchi,ky927448@dal.ca,46.809459,-54.08,COMU,Common Murre,Uria aalge,seabirds,presume_positive,,,Adult,Unknown,Land,,,,15,15,,0,,,,,,,,"Point Lance Beach (whole beach surveyed), NL",46.81008,-54.0877,"46.81, -54.08",46.81,-54.08,,
MT-574,Stephanie Avery-Gomm,Point Lance Beach (whole beach surveyed),NL,Newfoundland,2022,7,17,2022-07-17,Kyle d'Entremont and Bill Montevecchi,ky927448@dal.ca,46.809459,-54.08,COMU,Common Murre,Uria aalge,seabirds,presume_positive,,,Fledgling,,Land,,,,1,1,,0,,,,,,,,"Point Lance Beach (whole beach surveyed), NL",46.81008,-54.0877,"46.81, -54.08",46.81,-54.08,,
MT-580,Stephanie Avery-Gomm,Point Lance Beach (whole beach surveyed),NL,Newfoundland,2022,7,17,2022-07-17,Kyle d'Entremont and Bill Montevecchi,ky927448@dal.ca,46.809459,-54.08,NOGA,Northern Gannet,Morus bassanus,seabirds,presume_positive,,,Adult,Not Reported,Land,,,,10,10,7 or 8,0,,,,,,,,"Point Lance Beach (whole beach surveyed), NL",46.81008,-54.0877,"46.81, -54.08",46.81,-54.08,,
MT-600,Stephanie Avery-Gomm,Point Lance Beach (whole beach surveyed),NL,Newfoundland,2022,7,17,2022-07-17,Kyle d'Entremont and Bill Montevecchi,ky927448@dal.ca,46.809459,-54.08,GRSH,Great Shearwater,Ardenna gravis,seabirds,presume_positive,,,Not Reported,Not Reported,Land,,,,3,3,,0,,,,,,,,"Point Lance Beach (whole beach surveyed), NL",46.81008,-54.0877,"46.81, -54.08",46.81,-54.08,,
MT-624,Stephanie Avery-Gomm,Point Lance Beach (whole beach surveyed),NL,Newfoundland,2022,7,17,2022-07-17,Kyle d'Entremont and Bill Montevecchi,ky927448@dal.ca,46.809459,-54.08,BLKI,Black-legged Kittiwake,Rissa tridactyla,seabirds,presume_positive,,,Adult,Not Reported,Land,,,,3,3,,0,,,,,,,,"Point Lance Beach (whole beach surveyed), NL",46.81008,-54.0877,"46.81, -54.08",46.81,-54.08,,
MT-650,Stephanie Avery-Gomm,Point Lance Beach (whole beach surveyed),NL,Newfoundland,2022,7,17,2022-07-17,Kyle d'Entremont and Bill Montevecchi,ky927448@dal.ca,46.809459,-54.08,NOFU,Northern Fulmar,Fulmarus glacialis,seabirds,presume_positive,,,Adult,BreedingStatus,Land,,,,1,1,,0,,,,,,,,"Point Lance Beach (whole beach surveyed), NL",46.81008,-54.0877,"46.81, -54.08",46.81,-54.08,,
MT-662,Stephanie Avery-Gomm,Point Lance Beach (whole beach surveyed),NL,Newfoundland,2022,7,17,2022-07-17,Kyle d'Entremont and Bill Montevecchi,ky927448@dal.ca,46.809459,-54.08,DOVE,Dovekie,Alle alle,seabirds,presume_positive,,,Adult,Unknown,Land,,,,1,1,,0,,,,,,,,"Point Lance Beach (whole beach surveyed), NL",46.81008,-54.0877,"46.81, -54.08",46.81,-54.08,,
MT-663,Stephanie Avery-Gomm,Point Lance Beach (whole beach surveyed),NL,Newfoundland,2022,7,17,2022-07-17,Kyle d'Entremont and Bill Montevecchi,ky927448@dal.ca,46.809459,-54.08,HERG,Herring Gull,Larus argentatus,seabirds,presume_positive,,,Juvenile,,Land,,,,1,1,,0,,,,,,,,"Point Lance Beach (whole beach surveyed), NL",46.81008,-54.0877,"46.81, -54.08",46.81,-54.08,,
MT-664,Stephanie Avery-Gomm,Point Lance Beach (whole beach surveyed),NL,Newfoundland,2022,7,17,2022-07-17,Kyle d'Entremont and Bill Montevecchi,ky927448@dal.ca,46.809459,-54.08,RAZO,Razorbill,Alca torda,seabirds,presume_positive,,,Unknown,Unknown,Land,,,,2,2,,0,,,,,,,,"Point Lance Beach (whole beach surveyed), NL",46.81008,-54.0877,"46.81, -54.08",46.81,-54.08,,
MT-666,Stephanie Avery-Gomm,Gooseberry Cove,NL,Newfoundland,2022,7,17,2022-07-17,Kyle d'Entremont and Bill Montevecchi,ky927448@dal.ca,47.070464,-54.093611,COMU,Common Murre,Uria aalge,seabirds,presume_positive,,,Unknown,Not Reported,Land,,,,6,6,,,,,,,,,,"Gooseberry Cove, NL",48.03467,-53.6404,"47.07, -54.09",47.07,-54.09,,
MT-667,Stephanie Avery-Gomm,Gooseberry Cove,NL,Newfoundland,2022,7,17,2022-07-17,Kyle d'Entremont and Bill Montevecchi,ky927448@dal.ca,47.070464,-54.093611,NOGA,Northern Gannet,Morus bassanus,seabirds,presume_positive,,,Unknown,Not Reported,Land,,,1,1,1,,,,,,,,,,"Gooseberry Cove, NL",48.03467,-53.6404,"47.07, -54.09",47.07,-54.09,,
MT-668,Stephanie Avery-Gomm,Woody Point (just south of Point Verde),NL,Newfoundland,2022,7,17,2022-07-17,Kyle d'Entremont and Bill Montevecchi,ky927448@dal.ca,47.227783,-54.015048,COMU,Common Murre,Uria aalge,seabirds,presume_positive,,,Unknown,Not Reported,Land,,,,2,,,,,,,,,,,"Woody Point (just south of Point Verde), NL",49.50232,-57.9148,"47.23, -54.02",47.23,-54.02,,
MT-669,Matthew English,Cape St. Mary's,NL,Newfoundland,2022,7,17,2022-07-17,Chris Mooney,,46.821,-54.2,NOGA,Northern Gannet,Morus bassanus,seabirds,presume_positive,,,,,Land,,,,20,20,0,0,,,,,,,Main stack at Cape St Mary's,"Cape St. Mary's, NL",46.81667,-54.2,"46.82, -54.2",46.82,-54.2,,
MT-670,Stephanie Avery-Gomm,Middle Lawn Island,NL,Newfoundland,2022,7,17,2022-07-17,Ryan Roul,Takes WRD to Island for fieldwork,46.86937,-55.62,UNMU,Unknown Murre,Unknown Murre,seabirds,presume_positive,,,,,Water,,,,100,100,,0,,,,,,,Ryan Roul saw “over 100 [turrs and razorbills] dead just east of Middle Lawn” on Friday. “They were all floating belly up for miles and most in small groups of 2-3. It was also very foggy so we were seeing 100 yards in all directions of our course so I’m sure there was many more outside our line of sight.”,"Middle Lawn Island, NL",46.86345,-55.6189,"46.87, -55.62",46.87,-55.62,,
MT-671,Stephanie Avery-Gomm,"A small beach length in Argentina, by the old runway",NL,Newfoundland,2022,7,17,2022-07-17,Heather Barry - via Bill Montevecchi,,47.312761,-53.970376,ATPU,Atlantic Puffin,Fratercula arctica,seabirds,presume_positive,,,,,Land,,,,1,1,,,,,,,,,,,,,"47.31, -53.97",47.31,-53.97,,
MT-683,Stephanie Avery-Gomm,"A small beach length in Argentina, by the old runway",NL,Newfoundland,2022,7,17,2022-07-17,Heather Barry - via Bill Montevecchi,,47.312761,-53.970376,NOGA,Northern Gannet,Morus bassanus,seabirds,presume_positive,,,,,Land,,,,1,1,,,,,,,,,,,,,"47.31, -53.97",47.31,-53.97,,
MT-684,Stephanie Avery-Gomm,"A small beach length in Argentina, by the old runway",NL,Newfoundland,2022,7,17,2022-07-17,Heather Barry - via Bill Montevecchi,,47.312761,-53.970376,UNMU,Unknown Murre,Unknown Murre,seabirds,presume_positive,,,,,Land,,,,28,28,,,,,,,,,,,,,"47.31, -53.97",47.31,-53.97,,
MT-685,Matthew English,Ramea,NL,Newfoundland,2022,7,17,2022-07-17,Roger Dominie,,47.563,-57.5,NOGA,Northern Gannet,Morus bassanus,seabirds,presume_positive,,,,,Water,,,,8,8,,,,,,,,,"Floating on the water, observed by the ferry from Burgeo to Ramea.",,,,"47.56, -57.5",47.56,-57.5,,
MT-686,Tania Barychka,"Cribby Rocks, Great Island",NL,Newfoundland,2022,7,17,2022-07-17,Jeannine Winkel,,47.19096,-52.818077,ATPU,Atlantic Puffin,Fratercula arctica,seabirds,presume_positive,,,Adult,Breeding,Water,,,0,1,1,,0,,,,0,,,,,,,,,,,
MT-3427,TaniaBarychka,Bird Rock,NL,Newfoundland,2022,7,17,2022-07-17,Chris Mooney,Bill_Montevecchi_Lab,46.81866,-54.18231,NOGA,Northern Gannet,Morus bassanus,seabirds,presume_positive,,,Adult,,,,,0,20,20,,,,,,,,,,,,,,,,TB056,
MT-3428,TaniaBarychka,Point Lance Beach,NL,Newfoundland,2022,7,17,2022-07-17,Kyle D'Entremont & Bill Montevecchi,Bill_Montevecchi_Lab,46.81375,-54.08388,COMU,Common Murre,Uria aalge,seabirds,presume_positive,,,Adult,,,,,0,53,53,,,,,,,,,37 breeders,,,,,,,TB057,
MT-3429,TaniaBarychka,Point Lance Beach,NL,Newfoundland,2022,7,17,2022-07-17,Kyle D'Entremont & Bill Montevecchi,Bill_Montevecchi_Lab,46.81375,-54.08388,NOGA,Northern Gannet,Morus bassanus,seabirds,presume_positive,,,Adult,,,,,0,10,10,,,,,,,,,NOGA,,,,,,,TB058,
MT-3430,TaniaBarychka,Point Lance Beach,NL,Newfoundland,2022,7,17,2022-07-17,Kyle D'Entremont & Bill Montevecchi,Bill_Montevecchi_Lab,46.81375,-54.08388,DOVE,Dovekie,Alle alle,seabirds,presume_positive,,,,,,,,0,1,1,,,,,,,,,DOVE,,,,,,,TB059,
MT-3431,TaniaBarychka,Point Lance Beach,NL,Newfoundland,2022,7,17,2022-07-17,Kyle D'Entremont & Bill Montevecchi,Bill_Montevecchi_Lab,46.81375,-54.08388,GRSH,Great Shearwater,Ardenna gravis,seabirds,presume_positive,,,,,,,,0,3,3,,,,,,,,,GRSH,,,,,,,TB060,
MT-3432,TaniaBarychka,Point Lance Beach,NL,Newfoundland,2022,7,17,2022-07-17,Kyle D'Entremont & Bill Montevecchi,Bill_Montevecchi_Lab,46.81375,-54.08388,HERG,Herring Gull,Larus argentatus,seabirds,presume_positive,,,Juvenile,,,,,0,1,1,,,,,,,,,HERG,,,,,,,TB061,
MT-3433,TaniaBarychka,Point Lance Beach,NL,Newfoundland,2022,7,17,2022-07-17,Kyle D'Entremont & Bill Montevecchi,Bill_Montevecchi_Lab,46.81375,-54.08388,BLKI,Black-legged Kittiwake,Rissa tridactyla,seabirds,presume_positive,,,,,,,,0,3,3,,,,,,,,,BLKI,,,,,,,TB062,
MT-3434,TaniaBarychka,Point Lance Beach,NL,Newfoundland,2022,7,17,2022-07-17,Kyle D'Entremont & Bill Montevecchi,Bill_Montevecchi_Lab,46.81375,-54.08388,NOFU,Northern Fulmar,Fulmarus glacialis,seabirds,presume_positive,,,,,,,,0,1,1,,,,,,,,,NOFU,,,,,,,TB063,
MT-3435,TaniaBarychka,Point Lance Beach,NL,Newfoundland,2022,7,17,2022-07-17,Kyle D'Entremont & Bill Montevecchi,Bill_Montevecchi_Lab,46.81375,-54.08388,RAZO,Razorbill,Alca torda,seabirds,presume_positive,,,,,,,,0,2,2,,,,,,,,,RAZO,,,,,,,TB064,
MT-3436,TaniaBarychka,Patrick's Cove,NL,Newfoundland,2022,7,17,2022-07-17,Kyle D'Entremont & Bill Montevecchi,Bill_Montevecchi_Lab,47.03362,-54.11675,COMU,Common Murre,Uria aalge,seabirds,presume_positive,,,,,,,,0,6,6,,,,,,,,,"2 fresh, 1p of wings, 3 decayed",,,,,,,TB065,
MT-3437,TaniaBarychka,Gooseberry Cove,NL,Newfoundland,2022,7,17,2022-07-17,Kyle D'Entremont & Bill Montevecchi,Bill_Montevecchi_Lab,48.03469,-53.64029,NOGA,Northern Gannet,Morus bassanus,seabirds,presume_positive,,,,,,,,1,1,2,,,,,,,,,1 scavenged,,,,,,,TB066,
MT-3438,TaniaBarychka,Gooseberry Cove,NL,Newfoundland,2022,7,17,2022-07-17,Kyle D'Entremont & Bill Montevecchi,Bill_Montevecchi_Lab,48.03469,-53.64029,COMU,Common Murre,Uria aalge,seabirds,presume_positive,,,,,,,,0,6,6,,,,,,,,,"1 breeder, decayed",,,,,,,TB067,
MT-3439,TaniaBarychka,Woody Point,NL,Newfoundland,2022,7,17,2022-07-17,Kyle D'Entremont & Bill Montevecchi,Bill_Montevecchi_Lab,49.50234,-57.91477,COMU,Common Murre,Uria aalge,seabirds,presume_positive,,,,,,,,0,2,2,,,,,,,,,fresh,,,,,,,TB068,
MT-3440,TaniaBarychka,Argentia Beach by Old Runway,NL,Newfoundland,2022,7,17,2022-07-17,Heather Barry,Bill_Montevecchi_Lab,47.30333,-53.98691,UNMU,Unknown Murre,Unknown Murre,seabirds,presume_positive,,,,,,,,0,26,26,,,,,,,,,"lat/long for general area of Argentia, COMU/TBMU",,,,,,,TB069,
MT-3441,TaniaBarychka,Argentia Beach by Old Runway,NL,Newfoundland,2022,7,17,2022-07-17,Heather Barry,Bill_Montevecchi_Lab,47.30333,-53.98691,NOGA,Northern Gannet,Morus bassanus,seabirds,presume_positive,,,,,,,,0,1,1,,,,,,,,,lat/long for general area of Argentia,,,,,,,TB070,
MT-3442,TaniaBarychka,Argentia Beach by Old Runway,NL,Newfoundland,2022,7,17,2022-07-17,Heather Barry,Bill_Montevecchi_Lab,47.30333,-53.98691,ATPU,Atlantic Puffin,Fratercula arctica,seabirds,presume_positive,,,,,,,,0,1,1,,,,,,,,,lat/long for general area of Argentia,,,,,,,TB071,
MT-3443,TaniaBarychka,Great Island,NL,Newfoundland,2022,7,17,2022-07-17,Raul Zabala,Bill_Montevecchi_Lab,47.52866,-57.35484,ATPU,Atlantic Puffin,Fratercula arctica,seabirds,presume_positive,,,,,,,,0,8,8,,,,,,,,,,,,,,,,TB072,
MT-3444,TaniaBarychka,St. Vincents,NL,Newfoundland,2022,7,17,2022-07-17,Verna Haywood,Bill_Montevecchi_Lab,46.80076,-53.63737,UNMU,Unknown Murre,Unknown Murre,seabirds,presume_positive,,,,,,,,0,80,80,,,,,,,,,"mostly murres, TBMU/COMU",,,,,,,TB073,
MT-3445,TaniaBarychka,Burin,NL,Newfoundland,2022,7,17,2022-07-17,Karl Hodge,Bill_Montevecchi_Lab,47.05349,-55.17476,UNMU,Unknown Murre,Unknown Murre,seabirds,presume_positive,,,,,,,,0,lots,Lots,,,,,,,,,"Don’t look malnourished, number of birds not specified, COMU/TBMU",,,,,,,TB074,
MT-3446,TaniaBarychka,Burin,NL,Newfoundland,2022,7,17,2022-07-17,Karl Hodge,Bill_Montevecchi_Lab,47.05349,-55.17476,RAZO,Razorbill,Alca torda,seabirds,presume_positive,,,,,,,,0,lots,Lots,,,,,,,,,"Don’t look malnourished, number of birds not specified",,,,,,,TB075,
MT-3739,Matthew English,,NL,Newfoundland,2022,7,17,2022-07-17,DFO Whale Survey Staff,Angelia.Vanderlaan@dfo-mpo.gc.ca,51.25521,-57.3419,NOGA,Northern Gannet,Morus bassanus,seabirds,presume_positive,,,,,Water,,,0,25,25,,,,,,,,,Data from aerial whale surveys in the Gulf and Scotian Shelf from DFO,,,,,,,,
MT-3740,Matthew English,,NL,Newfoundland,2022,7,17,2022-07-17,DFO Whale Survey Staff,Angelia.Vanderlaan@dfo-mpo.gc.ca,51.38183,-56.7591,NOGA,Northern Gannet,Morus bassanus,seabirds,presume_positive,,,,,Water,,,0,4,4,,,,,,,,,Data from aerial whale surveys in the Gulf and Scotian Shelf from DFO,,,,,,,,
MT-3934,Tania Barychka,Francois,NL,Newfoundland,2022,7,17,2022-07-17,Brendan Kelly via Chris Ward,Chris Ward (ECCC),47.57991,-56.7464,UNBI,Unidentified Bird,"Aves (gen, sp)",unknown,presume_negative,,,,,Water,,,,0,0,,,,,,,,,while ferrying from Burgeo to Grey River to Francois and back,,,,,,,,
MT-5052,Tania Barychka,St. George's-Stephenville,NL,Newfoundland,2022,7,17,2022-07-17,ebird Apri -Sept 2022,S115265790,48.78382,-58.7692,HERG,Herring Gull,Larus argentatus,seabirds,presume_positive,,,Immature,,Land,,,,2,2,,,,,,,,,Two deceased immature HERG seen at the point on rocky ledges.,,,,,,,S115265790,
MT-687,Stephanie Avery-Gomm,Point la Haye,NL,Newfoundland,2022,7,18,2022-07-18,Public,Matthew.English@ec.gc.ca,46.892143,-53.597749,UNBI,Unidentified Bird,"Aves (gen, sp)",unknown,presume_negative,,,,,Land,,,,25,25,,0,,,,,,,,"Point la Haye, NL",46.89214,-53.5977,"46.89, -53.6",46.89,-53.6,,
MT-688,Matthew English,Gooseberry Cove,NL,Newfoundland,2022,7,18,2022-07-18,Public,Matthew.English@ec.gc.ca,47.070464,-54.093611,NOGA,Northern Gannet,Morus bassanus,seabirds,presume_positive,,,,,Land,,,,3,3,,,,,,,,,Mostly murres and a few gannets. Mr McGrath noted a fox running away with a dead bird,,,,,,,,
MT-689,Matthew English,Gooseberry Cove,NL,Newfoundland,2022,7,18,2022-07-18,Public,Matthew.English@ec.gc.ca,47.070464,-54.093611,UNMU,Unknown Murre,Unknown Murre,seabirds,presume_positive,,,,,Land,,,,9,9,,,,,,,,,Mostly murres and a few gannets. Mr McGrath noted a fox running away with a dead bird,,,,,,,,
MT-690,Matthew English,Patrick Cove,NL,Newfoundland,2022,7,18,2022-07-18,Public,Matthew.English@ec.gc.ca,47.00325,-54.1371,NOGA,Northern Gannet,Morus bassanus,seabirds,presume_positive,,,,,Land,,,,3,3,,,,,,,,,Mostly murres and a few gannets. Mr McGrath noted a fox running away with a dead bird,,,,,,,,
MT-691,Matthew English,Patrick Cove,NL,Newfoundland,2022,7,18,2022-07-18,Public,Matthew.English@ec.gc.ca,47.001292,-54.147028,UNMU,Unknown Murre,Unknown Murre,seabirds,presume_positive,,,,,Land,,,,9,9,,,,,,,,,Mostly murres and a few gannets. Mr McGrath noted a fox running away with a dead bird,,,,,,,,
MT-692,Matthew English,St. Vincent's,NL,Newfoundland,2022,7,18,2022-07-18,Public,Matthew.English@ec.gc.ca,46.789008,-53.636836,UNMU,Unknown Murre,Unknown Murre,seabirds,presume_positive,,,,,Land,,,,several,several,,,,,,,,,Unsure of number but stated murres and seagulls,,,,,,,,
MT-693,Matthew English,St. Vincent's,NL,Newfoundland,2022,7,18,2022-07-18,Public,Matthew.English@ec.gc.ca,46.789008,-53.636836,UNGU,Unknown Gull,Unknown Gull,seabirds,presume_positive,,,,,Land,,,,several,several,,,,,,,,,Unsure of number but stated murres and seagulls,,,,,,,,
MT-694,Matthew English,Mall Bay,NL,Newfoundland,2022,7,18,2022-07-18,Public,Matthew.English@ec.gc.ca,46.984869,-53.574783,UNMU,Unknown Murre,Unknown Murre,seabirds,presume_positive,,,,,Land,,,,4,4,,,,,,,,,,,,,,,,,
MT-695,Stephanie Avery-Gomm,Point La Haye,NL,Newfoundland,2022,7,18,2022-07-18,Public,Matthew.English@ec.gc.ca,46.892143,-53.597749,UNGU,Unknown Gull,Unknown Gull,seabirds,presume_positive,,,,,Both,,,,6,6,,,,,,,,,"66 birds total observed, a mixture of murres, puffins, gulls, and dovekies. During data entry, this was translated to 10 UNGU, 60 Alcids",,,,,,,,
MT-696,Stephanie Avery-Gomm,Point La Haye,NL,Newfoundland,2022,7,18,2022-07-18,Public,Matthew.English@ec.gc.ca,46.892143,-53.597749,Alcid sp.,Alcid sp.,Alcid sp.,seabirds,presume_negative,,,,,Both,,,,60,60,,,,,,,,,"66 birds total observed, a mixture of murres, puffins, gulls, and dovekies. During data entry, this was translated to 10 UNGU, 60 Alcids",,,,,,,,
MT-697,Matthew English,St. Lawrence,NL,Newfoundland,2022,7,18,2022-07-18,Public,Matthew.English@ec.gc.ca,46.92517,-55.3952,ATPU,Atlantic Puffin,Fratercula arctica,seabirds,presume_positive,,,,,Land,,,,several,several,,,,,,,,,Roughly 25 dead seagulls/puffins/turrs/gannets,,,,,,,,
MT-698,Matthew English,St. Lawrence,NL,Newfoundland,2022,7,18,2022-07-18,Public,Matthew.English@ec.gc.ca,46.92517,-55.3952,NOGA,Northern Gannet,Morus bassanus,seabirds,presume_positive,,,,,Land,,,,several,several,,,,,,,,,Roughly 25 dead seagulls/puffins/turrs/gannets,,,,,,,,
MT-699,Matthew English,St. Lawrence,NL,Newfoundland,2022,7,18,2022-07-18,Public,Matthew.English@ec.gc.ca,46.92517,-55.3952,UNMU,Unknown Murre,Unknown Murre,seabirds,presume_positive,,,,,Land,,,,several,several,,,,,,,,,Roughly 25 dead seagulls/puffins/turrs/gannets,,,,,,,,
MT-700,Matthew English,St. Lawrence,NL,Newfoundland,2022,7,18,2022-07-18,Public,Matthew.English@ec.gc.ca,46.92517,-55.3952,UNGU,Unknown Gull,Unknown Gull,seabirds,presume_positive,,,,,Land,,,,several,several,,,,,,,,,Roughly 25 dead seagulls/puffins/turrs/gannets,,,,,,,,
MT-701,Matthew English,Shoal Cove (St. Lawrence),NL,Newfoundland,2022,7,18,2022-07-18,Chris Ward,,46.882758,-55.40073,ATPU,Atlantic Puffin,Fratercula arctica,seabirds,presume_positive,,,,,Land,,,,4,4,,4,,,,,,,,,,,,,,,
MT-702,Matthew English,Shoal Cove (St. Lawrence),NL,Newfoundland,2022,7,18,2022-07-18,Chris Ward,,46.882758,-55.40073,UNMU,Unknown Murre,Unknown Murre,seabirds,presume_positive,,,,,Land,,,,30,30,,30,,,,,,,,,,,,,,,
MT-703,Matthew English,Cow Head,NL,Newfoundland,2022,7,18,2022-07-18,Public,Matthew.English@ec.gc.ca,46.882758,-55.40073,NOGA,Northern Gannet,Morus bassanus,seabirds,presume_positive,,,,,Land,,,,5,5,,5,,,,,,,4-6 dead gannets in Cow Head area.,,,,,,,,
MT-704,Tania Barychka,"Point May, NL, Canada",NL,Newfoundland,2022,7,18,2022-07-18,iNaturalist,karl253,46.8984392,-55.936149,NOGA,Northern Gannet,Morus bassanus,seabirds,presume_positive,,,,,Land,,,,1,1,,,,,,,,,,,,,,,,126907305,
MT-3447,TaniaBarychka,Gull Island Boat Landing,NL,Newfoundland,2022,7,18,2022-07-18,Kyle D'Entremont,Bill_Montevecchi_Lab,47.26314,-52.77317,COMU,Common Murre,Uria aalge,seabirds,presume_positive,,,,,,,,0,1,1,,,,,,,,,,,,,,,,TB076,
MT-3448,TaniaBarychka,Gull Island Boat Landing,NL,Newfoundland,2022,7,18,2022-07-18,Kyle D'Entremont,Bill_Montevecchi_Lab,47.26314,-52.77317,ATPU,Atlantic Puffin,Fratercula arctica,seabirds,presume_positive,,,1 Adult 1 Chick,,,,,0,2,2,,,,,,,,,,,,,,,,TB077,
MT-3449,TaniaBarychka,St. Lawrence,NL,Newfoundland,2022,7,18,2022-07-18,Cass Clarke,Bill_Montevecchi_Lab,46.88156,-55.40012,RAZO,Razorbill,Alca torda,seabirds,presume_positive,,,,,,,,0,1,1,,,,,,,,,,,,,,,,TB078,
MT-3450,TaniaBarychka,"Shoal Cove, St. Lawrence",NL,Newfoundland,2022,7,18,2022-07-18,Tanya Edwards,Bill_Montevecchi_Lab,46.88156,-55.40012,UNMU,Unknown Murre,Unknown Murre,seabirds,presume_positive,,,,,,,,0,200,200,,,,,,,,,"mostly murres, TBMU/COMU",,,,,,,TB079,
MT-3451,TaniaBarychka,"St. Lawrence, Shoal Cove Beach",NL,Newfoundland,2022,7,18,2022-07-18,Katherine Peddigrew Grandy,Bill_Montevecchi_Lab,46.88156,-55.40012,ATPU,Atlantic Puffin,Fratercula arctica,seabirds,presume_positive,,,,,,,,0,4,4,,,,,,,,,NL Birdwatching Group,,,,,,,TB080,
MT-3452,TaniaBarychka,"St. Lawrence, Shoal Cove Beach",NL,Newfoundland,2022,7,18,2022-07-18,Katherine Peddigrew Grandy,Bill_Montevecchi_Lab,46.88156,-55.40012,RAZO,Razorbill,Alca torda,seabirds,presume_positive,,,,,,,,1,2,3,,,,,,,,,"Dying/dead, NL Birdwatching Group",,,,,,,TB081,
MT-3453,TaniaBarychka,"St. Lawrence, Shoal Cove Beach",NL,Newfoundland,2022,7,18,2022-07-18,Katherine Peddigrew Grandy,Bill_Montevecchi_Lab,46.88156,-55.40012,UNMU,Unknown Murre,Unknown Murre,seabirds,presume_positive,,,,,,,,0,1,1,,,,,,,,,"NL Birdwatching Group, COMU/TBMU",,,,,,,TB082,
MT-705,Tania Barychka,"Point La Haye, NL",NL,Newfoundland,2022,7,19,2022-07-19,Point L Haye Summary - Sabina W.; conducted by CWS,,46.89214,-53.5977,NOFU,Northern Fulmar,Fulmarus glacialis,seabirds,presume_positive,,,,,Land,,,,1,1,,,,,,,,,,,,,,,,,
MT-706,Tania Barychka,"Point La Haye, NL",NL,Newfoundland,2022,7,19,2022-07-19,Point L Haye Summary - Sabina W.; conducted by CWS,,46.89214,-53.5977,COMU,Common Murre,Uria aalge,seabirds,presume_positive,,,,,Land,,,,101,101,,,,,,,,,,,,,,,,,
MT-707,Tania Barychka,"Point La Haye, NL",NL,Newfoundland,2022,7,19,2022-07-19,Point L Haye Summary - Sabina W.; conducted by CWS,,46.89214,-53.5977,COMU,Common Murre,Uria aalge,seabirds,presume_positive,,,Fledgling,,Land,,,,1,1,,,,,,,,,,,,,,,,,
MT-708,Tania Barychka,"Point La Haye, NL",NL,Newfoundland,2022,7,19,2022-07-19,Point L Haye Summary - Sabina W.; conducted by CWS,,46.89214,-53.5977,DOVE,Dovekie,Alle alle,seabirds,presume_positive,,,,,Land,,,,5,5,,,,,,,,,,,,,,,,,
MT-709,Tania Barychka,"Point La Haye, NL",NL,Newfoundland,2022,7,19,2022-07-19,Point L Haye Summary - Sabina W.; conducted by CWS,,46.89214,-53.5977,TBMU,Thick-billed Murre,Uria lomvia,seabirds,presume_positive,,,,,Land,,,,1,1,,,,,,,,,,,,,,,,,
MT-710,Tania Barychka,"Point La Haye, NL",NL,Newfoundland,2022,7,19,2022-07-19,Point L Haye Summary - Sabina W.; conducted by CWS,,46.89214,-53.5977,NOGA,Northern Gannet,Morus bassanus,seabirds,presume_positive,,,,,Land,,,,1,1,,,,,,,,,,,,,,,,,
MT-711,Tania Barychka,"Point La Haye, NL",NL,Newfoundland,2022,7,19,2022-07-19,Point L Haye Summary - Sabina W.; conducted by CWS,,46.89214,-53.5977,BLKI,Black-legged Kittiwake,Rissa tridactyla,seabirds,presume_positive,,,,,Land,,,,2,2,,,,,,,,,,,,,,,,,
MT-712,Tania Barychka,"Point La Haye, NL",NL,Newfoundland,2022,7,19,2022-07-19,Point L Haye Summary - Sabina W.; conducted by CWS,,46.89214,-53.5977,GRSH,Great Shearwater,Ardenna gravis,seabirds,presume_positive,,,,,Land,,,,4,4,,,,,,,,,,,,,,,,,
MT-713,Tania Barychka,"Point La Haye, NL",NL,Newfoundland,2022,7,19,2022-07-19,Point L Haye Summary - Sabina W.; conducted by CWS,,46.89214,-53.5977,ATPU,Atlantic Puffin,Fratercula arctica,seabirds,presume_positive,,,,,Land,,,,4,4,,,,,,,,,,,,,,,,,
MT-715,Tania Barychka,"Gros Morne National Park, Division #9, Subdivision A, NL, CA",NL,Newfoundland,2022,7,19,2022-07-19,iNaturalist,katroma,49.6830491,-57.964661,NOGA,Northern Gannet,Morus bassanus,seabirds,presume_positive,,,,,Land,,,,1,1,,,,,,,,,,,,,,,,128424569,
MT-718,Matthew English,Castle Hill National Historic Site of Canada,NL,Newfoundland,2022,7,19,2022-07-19,Newfoundland East Field Unit,2022-HWC-0648-ENFU-0005,47.250654,-53.971877,AMCR,American Crow,Corvus brachyrhynchos,landbirds,presume_positive,,,,,Land,,,,,1,,,,,,,,,,,,,,,,,
MT-726,Tania Barychka,North of Great Island,NL,Newfoundland,2022,7,19,2022-07-19,Jeannine Winkel,,47.195465,-52.812392,BLKI,Black-legged Kittiwake,Rissa tridactyla,seabirds,presume_positive,,,adult,breeding,Water,,,0,1,1,,0,,,,0,,,,,,,,,,,
MT-3935,Tania Barychka,Point La Haye,NL,Newfoundland,2022,7,19,2022-07-19,Jerry Cahill via PP and C Ward,Chris Ward (ECCC),46.89214,-53.5977,UNMU,Unknown Murre,Unknown Murre,seabirds,presume_positive,,,,,Land,,,,40,40,,,,,,,,,,,,,,,,,
MT-3936,Tania Barychka,Point La Haye,NL,Newfoundland,2022,7,19,2022-07-19,Jerry Cahill via PP and C Ward,Chris Ward (ECCC),46.89214,-53.5977,UNMU,Unknown Murre,Unknown Murre,seabirds,presume_positive,,,,,Land,,,2,,2,,,,,,,,,a couple,,,,,,,,
MT-3937,Tania Barychka,Point La Haye,NL,Newfoundland,2022,7,19,2022-07-19,Jerry Cahill via PP and C Ward,Chris Ward (ECCC),46.89214,-53.5977,ATPU,Atlantic Puffin,Fratercula arctica,seabirds,presume_positive,,,,,Land,,,,1,1,,,,,,,,,,,,,,,,,
MT-3938,Tania Barychka,St Vincent beach,NL,Newfoundland,2022,7,19,2022-07-19,Sabina W. via C Ward,Chris Ward (ECCC),46.78933,-53.6371,COMU,Common Murre,Uria aalge,seabirds,presume_positive,,,,,Land,,,,108,108,,,,,,,,,,,,,,,,,
MT-3939,Tania Barychka,St Vincent beach,NL,Newfoundland,2022,7,19,2022-07-19,Sabina W. via C Ward,Chris Ward (ECCC),46.78933,-53.6371,NOGA,Northern Gannet,Morus bassanus,seabirds,presume_positive,,,,,Land,,,,5,5,,2,2,,,,,,,,,,,,,,
MT-3940,Tania Barychka,St Vincent beach,NL,Newfoundland,2022,7,19,2022-07-19,Sabina W. via C Ward,Chris Ward (ECCC),46.78933,-53.6371,DOVE,Dovekie,Alle alle,seabirds,presume_positive,,,,,Land,,,,3,3,,1,1,,,,,,,,,,,,,,
MT-3941,Tania Barychka,St Vincent beach,NL,Newfoundland,2022,7,19,2022-07-19,Sabina W. via C Ward,Chris Ward (ECCC),46.78933,-53.6371,RAZO,Razorbill,Alca torda,seabirds,presume_positive,,,adult,,Land,,,,1,1,,,,,,,,,,,,,,,,,
MT-3942,Tania Barychka,St Vincent beach,NL,Newfoundland,2022,7,19,2022-07-19,Sabina W. via C Ward,Chris Ward (ECCC),46.78933,-53.6371,GBBG,Great Black-backed Gull,Larus marinus,seabirds,presume_positive,,,,,Land,,,,1,1,,,,,,,,,very old carcass,,,,,,,,
MT-3943,Tania Barychka,St Vincent beach,NL,Newfoundland,2022,7,19,2022-07-19,Sabina W. via C Ward,Chris Ward (ECCC),46.78933,-53.6371,UNSH,Unknown Shearwater,Unknown Shearwater,seabirds,presume_negative,,,,,Land,,,,5,5,,1,1,,,,,,,,,,,,,,
MT-3944,Tania Barychka,St Vincent beach,NL,Newfoundland,2022,7,19,2022-07-19,Sabina W. via C Ward,Chris Ward (ECCC),46.78933,-53.6371,ATPU,Atlantic Puffin,Fratercula arctica,seabirds,presume_positive,,,,,Land,,,,6,6,,1,1,,,,,,,,,,,,,,
MT-734,Matthew English,Witless Bay,NL,Newfoundland,2022,7,20,2022-07-20,Public,Matthew.English@ec.gc.ca,47.278878,-52.830932,NOGA,Northern Gannet,Morus bassanus,seabirds,presume_positive,,,,,Land,,,,1,1,0,0,0,,,,,,,,,,,,,,
MT-735,Matthew English,Witless Bay,NL,Newfoundland,2022,7,20,2022-07-20,Public,Matthew.English@ec.gc.ca,47.278878,-52.830932,COMU,Common Murre,Uria aalge,seabirds,presume_positive,,,,,Land,,,,10,10,0,0,0,,,,,,2 separate reports for dead Common Murrs in Witless Bay near Gull island. Duncan Costello (691-2965) and Laura (682-7190). Reports of approximately 10 in the area,,,,,,,,
MT-736,Matthew English,Shoal Cove (St. Lawrence),NL,Newfoundland,2022,7,20,2022-07-20,Public,Matthew.English@ec.gc.ca,46.882758,-55.40073,UNMU,Unknown Murre,Unknown Murre,seabirds,presume_positive,,,,,Land,,,,50,50,0,0,0,,,,,,,,,,,,,,
MT-737,Matthew English,St. Bride's,NL,Newfoundland,2022,7,20,2022-07-20,Public,Matthew.English@ec.gc.ca,46.92027,-54.174969,UNMU,Unknown Murre,Unknown Murre,seabirds,presume_positive,,,,,Land,,,,50,50,0,0,0,,,,,,,,,,,,,,
MT-739,Matthew English,Trepassey,NL,Newfoundland,2022,7,20,2022-07-20,Public,Matthew.English@ec.gc.ca,46.726162,-53.368065,NOGA,Northern Gannet,Morus bassanus,seabirds,presume_positive,,,,,Land,,,,5,5,,,,,,,,,,,,,,,,,
MT-743,Matthew English,Point Lance,NL,Newfoundland,2022,7,20,2022-07-20,Public,Matthew.English@ec.gc.ca,,-54.08,NOGA,Northern Gannet,Morus bassanus,seabirds,presume_positive,,,,,Land,,,100s,100s,100s,0,,,,,,,,Peter Corcoran reports 100's of dead/alive murrs and gannets in point lance,,,,"0, -54.08",0,-54.08,,
MT-744,Matthew English,Point Lance,NL,Newfoundland,2022,7,20,2022-07-20,Public,Matthew.English@ec.gc.ca,46.809459,-54.08,UNMU,Unknown Murre,Unknown Murre,seabirds,presume_positive,,,,,Land,,,100,100,100,0,,,,,,,,Peter Corcoran reports 100's of dead/alive murrs and gannets in point lance,,,,"46.81, -54.08",46.81,-54.08,,
MT-745,Tania Barychka,"Lower Pond, Witless Bay, NL",NL,Newfoundland,2022,7,20,2022-07-20,Irene Taylor 334-3737 via PP,,47.28424,-52.8138,NOGA,Northern Gannet,Morus bassanus,seabirds,presume_positive,,,,,Land,,,,1,1,,,,,,,,,,,,,,,,,
MT-746,Tania Barychka,Point La Haye,NL,Newfoundland,2022,7,20,2022-07-20,Robert Boen 693-1861 via PP,,46.89214,-53.5977,UNMU,Unknown Murre,Unknown Murre,seabirds,presume_positive,,,,,Land,,,,18,18,,,,,,,,,,,,,,,,,
MT-747,Tania Barychka,"Green Island Brook, NL",NL,Newfoundland,2022,7,20,2022-07-20,Elizabeth Smith 454-7286 via PP,,51.4,-56.5333,UNGU,Unknown Gull,Unknown Gull,seabirds,presume_positive,,,,,Land,,,,8,8,,,,,,,,,,,,,,,,,
MT-3454,TaniaBarychka,"North Beach, Witless Bay",NL,Newfoundland,2022,7,20,2022-07-20,Babbs Taylor,Bill_Montevecchi_Lab,47.28286,-52.83255,NOGA,Northern Gannet,Morus bassanus,seabirds,presume_positive,,,,,,,,0,1,1,,,,,,,,,Freshly dead,,,,,,,TB083,
MT-5056,Tania Barychka,Avalon Peninsula-St. John's,NL,Newfoundland,2022,7,20,2022-07-20,ebird Apri -Sept 2022,S115421160,47.52722,-52.784,MALL,Mallard,Anas platyrhynchos,waterfowl,presume_positive,,,,,Land,,,,1,1,,,,,,,,,Also 1 unmoving one in the reeds that appeared deceased.,,,,,,,S115421160,
MT-748,Tania Barychka,"Back Beach, Lumsden",NL,Newfoundland,2022,7,21,2022-07-21,Gene Stokes 536-7171 via PP,,49.31345,-53.6237,UNMU,Unknown Murre,Unknown Murre,seabirds,presume_positive,,,,,Land,,,,1,1,,,,,,,,,,,,,,,,,
MT-749,Tania Barychka,"Trepassey, NL",NL,Newfoundland,2022,7,21,2022-07-21,Tina Power 771-0333 via PP,,46.73612,-53.3603,DOVE,Dovekie,Alle alle,seabirds,presume_positive,,,,,Land,,,,1,1,,,,,,,,,,,,,,,,,
MT-1126,Tania Barychka,"Trepassey, NL",NL,Newfoundland,2022,7,21,2022-07-21,Tina Power 771-0333 via PP,,46.73612,-53.3603,RAZO,Razorbill,Alca torda,seabirds,presume_positive,,,,,Land,,,,1,1,,,,,,,,,,,,,,,,,
MT-1141,Tania Barychka,"Shoal Bay Beach, NL",NL,Newfoundland,2022,7,21,2022-07-21,Thomas Doody 521-2290 via PP,,46.99642,-53.6164,COMU,Common Murre,Uria aalge,seabirds,presume_positive,,,,,Land,,,,52,52,,,,,,,,,,,,,,,,,
MT-1142,Tania Barychka,"Shoal Bay Beach, NL",NL,Newfoundland,2022,7,21,2022-07-21,Thomas Doody 521-2290 via PP,,46.99642,-53.6164,UNMU,Unknown Murre,Unknown Murre,seabirds,presume_positive,,,,,Land,,,3,,3,,,,,,,,,,,,,,,,,
MT-1143,Tania Barychka,"Shoal Bay Beach, NL",NL,Newfoundland,2022,7,21,2022-07-21,Thomas Doody 521-2290 via PP,,46.99642,-53.6164,NOGA,Northern Gannet,Morus bassanus,seabirds,presume_positive,,,,,Land,,,,5,5,,,,,,,,,,,,,,,,,
MT-1144,Tania Barychka,"Shoal Bay Beach, NL",NL,Newfoundland,2022,7,21,2022-07-21,Thomas Doody 521-2290 via PP,,46.99642,-53.6164,GRSH,Great Shearwater,Ardenna gravis,seabirds,presume_positive,,,,,Land,,,,1,1,,,,,,,,,,,,,,,,,
MT-1145,Tania Barychka,"Kipens, NL",NL,Newfoundland,2022,7,21,2022-07-21,Jamie Canning 649-7877 via PP,,48.5489,-58.6236,NOGA,Northern Gannet,Morus bassanus,seabirds,presume_positive,,,,,Land,,,,4,4,,,,,,,,,,,,,,,,,
MT-1146,Tania Barychka,"Lower Pond, Witless Bay",NL,Newfoundland,2022,7,21,2022-07-21,Jeannine Winkel,,47.281591,-52.812376,BLKI,Black-legged Kittiwake,Rissa tridactyla,seabirds,presume_positive,,,adult,breeding,Land,,,0,2,2,,0,,,,0,,,,,,,,,,,
MT-1147,Tania Barychka,"Lower Pond Beach, Witless Bay",NL,Newfoundland,2022,7,21,2022-07-21,Jeannine Winkel,,47.281469,-52.81023,NOGA,Northern Gannet,Morus bassanus,seabirds,presume_positive,,,adult,,Land,,,0,1,1,,0,,,,0,,,,,,,,,,,
MT-3458,TaniaBarychka,"Shag Rock, Long Harbour",NL,Newfoundland,2022,7,21,2022-07-21,Roy Murphy,Bill_Montevecchi_Lab,47.39145,-53.96832,UNMU,Unknown Murre,Unknown Murre,seabirds,presume_positive,,,,,,,,0,1,1,,,,,,,,,"Facebook dm, TBMU/COMU",,,,,,,TB087,
MT-1148,Matthew English,Portugal Cove South (Mistaken Point),NL,Newfoundland,2022,7,22,2022-07-22,Tina Leonard,,46.71317,-53.27,UNMU,Unknown Murre,Unknown Murre,seabirds,presume_positive,,,,,Land,,,,12,12,,,,,,,,,Mistaken Point Ecological Reserve,,,,"46.71, -53.27",46.71,-53.27,,
MT-1149,Matthew English,Drook Beach (Mistaken Point),NL,Newfoundland,2022,7,22,2022-07-22,Tina Leonard,,46.67104,-53.24,UNMU,Unknown Murre,Unknown Murre,seabirds,presume_positive,,,,,Land,,,,1,1,,,,,,,,,Mistaken Point Ecological Reserve,,,,"46.67, -53.24",46.67,-53.24,,
MT-1150,Matthew English,Long Beach (Mistaken Point),NL,Newfoundland,2022,7,22,2022-07-22,Tina Leonard,,47.94794,-53.0544,UNMU,Unknown Murre,Unknown Murre,seabirds,presume_positive,,,,,Land,,,,1,1,,,,,,,,,Mistaken Point Ecological Reserve,,,,,,,,
MT-1151,Matthew English,St. Joseph's,NL,Newfoundland,2022,7,22,2022-07-22,Public,Matthew.English@ec.gc.ca,47.11862,-53.5097,UNLO,Unknown Loon,Unknown Loon,loons,presume_negative,,,,,Land,,,,2,2,,,,,,,,,,,,,,,,,
MT-1152,Tania Barychka,"Point La Haye, NL",NL,Newfoundland,2022,7,22,2022-07-22,"Stan Tobin via Robert Ronconi, ECCC",,46.89214,-53.5977,UNBI,Unidentified Bird,"Aves (gen, sp)",unknown,presume_negative,,,,,Land,,,,150,150,,,,,,,,,"From all those counts together (2022-07-22 by Stan Tobin): <20 NOGA, mostly murres, a few RAZO, no shearwaters, 1BLKI3",,,,,,,,
MT-1153,Tania Barychka,"Saint Vincent's, NL",NL,Newfoundland,2022,7,22,2022-07-22,"Stan Tobin via Robert Ronconi, ECCC",,46.76471,-53.5924,UNBI,Unidentified Bird,"Aves (gen, sp)",unknown,presume_negative,,,,,Land,,,,130,130,,,,,,,,,"From all those counts together (2022-07-22 by Stan Tobin): <20 NOGA, mostly murres, a few RAZO, no shearwaters, 1BLKI",,,,,,,,
MT-1154,Tania Barychka,"Peter's River, NL",NL,Newfoundland,2022,7,22,2022-07-22,"Stan Tobin via Robert Ronconi, ECCC",,46.76825,-53.5955,UNBI,Unidentified Bird,"Aves (gen, sp)",unknown,presume_negative,,,,,Land,,,,20,20,,,,,,,,,"From all those counts together (2022-07-22 by Stan Tobin): <20 NOGA, mostly murres, a few RAZO, no shearwaters, 1BLKI",,,,,,,,
MT-1155,Tania Barychka,"Portugal Cove South, NL",NL,Newfoundland,2022,7,22,2022-07-22,"Stan Tobin via Robert Ronconi, ECCC",,46.71414,-53.2547,UNBI,Unidentified Bird,"Aves (gen, sp)",unknown,presume_negative,,,,,Land,,,,100,100,,,,,,,,,"From all those counts together (2022-07-22 by Stan Tobin): <20 NOGA, mostly murres, a few RAZO, no shearwaters, 1BLKI. >100 birds (did not walk beach but did scan by binoculars from point point)",,,,,,,,
MT-1156,Tania Barychka,"Saint Vincent's, NL",NL,Newfoundland,2022,7,22,2022-07-22,"Stan Tobin via Robert Ronconi, ECCC",,46.76471,-53.5924,BLKI,Black-legged Kittiwake,Rissa tridactyla,seabirds,presume_positive,,,,,Land,,,,1,1,,,,,,,,,Ref above entries from Southern Avalon 2022-07-22.,,,,,,,,
MT-1157,Tania Barychka,"176 Harbour Road, Witless Bay",NL,Newfoundland,2022,7,22,2022-07-22,mgdunn via Paddy's Pond,,47.28056,-52.8141,UNGU,Unknown Gull,Unknown Gull,seabirds,presume_positive,,,,,Land,,,,1,1,,,,,,,,,,,,,,,,,
MT-1158,Tania Barychka,"176 Harbour Road, Witless Bay",NL,Newfoundland,2022,7,22,2022-07-22,mgdunn via Paddy's Pond,,47.28056,-52.8141,UNMU,Unknown Murre,Unknown Murre,seabirds,presume_positive,,,,,Land,,,,1,1,,,,,,,,,,,,,,,,,
MT-1159,Tania Barychka,"Saint Bride's, NL",NL,Newfoundland,2022,7,22,2022-07-22,"Vicky Dohey, 337-2375",,46.91995,-54.1723,UNMU,Unknown Murre,Unknown Murre,seabirds,presume_positive,,,,,Land,,,,10,10,,,,,,,,,,,,,,,,,
MT-1160,Tania Barychka,"St Shott's Beach, NL",NL,Newfoundland,2022,7,22,2022-07-22,Monica Lee 5147303698,,46.63286,-53.5873,UNMU,Unknown Murre,Unknown Murre,seabirds,presume_positive,,,,,Land,,,,1,1,,,,,,,,,,,,,,,,,
MT-1161,Tania Barychka,"Trepassey Beach, NL",NL,Newfoundland,2022,7,22,2022-07-22,Lucas Ward 438-1012 via Paddy's Pond,,46.73612,-53.3603,NOGA,Northern Gannet,Morus bassanus,seabirds,presume_positive,,,,,Land,,,,3,3,,,,,,,,,,,,,,,,,
MT-1162,Tania Barychka,"Trepassey Beach, NL",NL,Newfoundland,2022,7,22,2022-07-22,Lucas Ward 438-1012 via Paddy's Pond,,46.73612,-53.3603,BLGU,Black Guillemot,Cepphus grylle,seabirds,presume_negative,,,,,Land,,,,1,1,,,,,,,,,,,,,,,,,
MT-1163,Tania Barychka,"Cape Race, NL",NL,Newfoundland,2022,7,22,2022-07-22,Lucas Ward 438-1012 via Paddy's Pond,,46.66667,-53.0667,UNMU,Unknown Murre,Unknown Murre,seabirds,presume_positive,,,,,Land,,,,3,3,,,,,,,,,,,,,,,,,
MT-1164,Tania Barychka,"Ragged Beach, Witless Bay, NL",NL,Newfoundland,2022,7,22,2022-07-22,Jane Gatherall 330-8830 via Paddy's Pond,,47.24995,-52.8019,UNMU,Unknown Murre,Unknown Murre,seabirds,presume_positive,,,,,Land,,,,2,2,,,,,,,,,,,,,,,,,
MT-1165,Tania Barychka,"St Joseph's, NL",NL,Newfoundland,2022,7,22,2022-07-22,Edna White 277-1666 via Paddy's Pond,,47.11862,-53.5097,UNLO,Unknown Loon,Unknown Loon,loons,presume_negative,,,,,Land,,,,2,2,,,,,,,,,,,,,,,,,
MT-1166,Tania Barychka,"Lower Pond, Witless Bay, NL",NL,Newfoundland,2022,7,22,2022-07-22,Riley Hann 690-8845 via PP,,47.28424,-52.8138,UNMU,Unknown Murre,Unknown Murre,seabirds,presume_positive,,,,,Land,,,,1,1,,,,,,,,,,,,,,,,,
MT-1167,Tania Barychka,"Harricott Bay, NL",NL,Newfoundland,2022,7,22,2022-07-22,Maxine Gregory 521-2890 via PP,,47.17448,-53.5357,UNMU,Unknown Murre,Unknown Murre,seabirds,presume_positive,,,,,Land,,,,20,20,,,,,,,,,Approx,,,,,,,,
MT-1168,Tania Barychka,"Trepassey, NL",NL,Newfoundland,2022,7,22,2022-07-22,Edward Molloy 438-5061 via PP,,46.73612,-53.3603,UNBI,Unidentified Bird,"Aves (gen, sp)",unknown,presume_negative,,,,,Land,,,,20,20,,,,,,,,,"Mix of NOGA, RAZO and murres",,,,,,,,
MT-1169,Tania Barychka,"Mitchells Brook, NL",NL,Newfoundland,2022,7,22,2022-07-22,Ryan Murphy 5172468332,,47.1352,-53.5147,NOGA,Northern Gannet,Morus bassanus,seabirds,presume_positive,,,,,Land,,,,1,1,,,,,,,,,,,,,,,,,
MT-1170,Tania Barychka,"Saint Bride's, NL",NL,Newfoundland,2022,7,22,2022-07-22,Madonna Conway 337-2364 via PP,,46.91995,-54.1723,UNMU,Unknown Murre,Unknown Murre,seabirds,presume_positive,,,,,Land,,,,20,20,,,,,,,,,"Possibly, same murres as reported by Vicky Dohey",,,,,,,,
MT-1171,Tania Barychka,"Saint Bride's, NL",NL,Newfoundland,2022,7,22,2022-07-22,Madonna Conway 337-2364 via PP,,46.91995,-54.1723,NOGA,Northern Gannet,Morus bassanus,seabirds,presume_positive,,,,,Land,,,,1,1,,,,,,,,,,,,,,,,,
MT-1172,Tania Barychka,"Saint Bride's, NL",NL,Newfoundland,2022,7,22,2022-07-22,Madonna Conway 337-2364 via PP,,46.91995,-54.1723,UNMU,Unknown Murre,Unknown Murre,seabirds,presume_positive,,,,,Land,,,1,,1,,,,,,,,,,,,,,,,,
MT-1173,Tania Barychka,"Gooseberry Cove, NL",NL,Newfoundland,2022,7,22,2022-07-22,William McGrath 337-2390 via PP,,48.03467,-53.6404,UNMU,Unknown Murre,Unknown Murre,seabirds,presume_positive,,,,,Land,,,,12,12,,,,,,,,,,,,,,,,,
MT-1174,Tania Barychka,"Gooseberry Cove, NL",NL,Newfoundland,2022,7,22,2022-07-22,William McGrath 337-2390 via PP,,48.03467,-53.6404,NOGA,Northern Gannet,Morus bassanus,seabirds,presume_positive,,,,,Land,,,,2,2,,,,,,,,,,,,,,,,,
MT-1175,Tania Barychka,"Lower Pond, Witless Bay",NL,Newfoundland,2022,7,22,2022-07-22,Bruce Mactavish,,47.281591,-52.812376,BLKI,Black-legged Kittiwake,Rissa tridactyla,seabirds,presume_positive,,,,,Land,,,0,2,2,,0,,,,0,,,,,,,,,,,
MT-1176,Tania Barychka,"Lower Pond Beach, Witless Bay",NL,Newfoundland,2022,7,22,2022-07-22,Bruce Mactavish,,47.281469,-52.812376,BLKI,Black-legged Kittiwake,Rissa tridactyla,seabirds,presume_positive,,,,,Land,,,0,1,1,,0,,,,0,,,,,,,,,,,
MT-1177,Tania Barychka,"Lower Pond Beach, Witless Bay",NL,Newfoundland,2022,7,22,2022-07-22,Bruce Mactavish,,47.281469,-52.812376,UNMU,Unknown Murre,Unknown Murre,seabirds,presume_positive,,,,,Land,,,0,1,1,,0,,,,0,,,,,,,,,,,
MT-1178,Tania Barychka,Mobile Bay,NL,Newfoundland,2022,7,22,2022-07-22,Bruce Mactavish,,47.245704,-52.836421,UNMU,Unknown Murre,Unknown Murre,seabirds,presume_positive,,,,,Water,,,3,3,6,,0,,,,0,,,,,,,,,,,
MT-1179,Tania Barychka,Mobile Bay,NL,Newfoundland,2022,7,22,2022-07-22,Bruce Mactavish,,47.245704,-52.836421,GBBG,Great Black-backed Gull,Larus marinus,seabirds,presume_positive,,,,,Water,,,0,1,1,,0,,,,0,,,,,,,,,,,
MT-1181,Tania Barychka,Mobile Bay,NL,Newfoundland,2022,7,22,2022-07-22,Julie Beth White,,47.247007,-52.839185,COMU,Common Murre,Uria aalge,seabirds,presume_positive,,,adult,breeding,Land,,,0,3,3,,0,,,,3,photos,,Could be the same birds Bruce reported earlier; PhotFileName: Dead murre Julie White 1-3,,,,,,,,
MT-3459,TaniaBarychka,"Ship Island, St. Michaels",NL,Newfoundland,2022,7,22,2022-07-22,Glenda Melvin,Bill_Montevecchi_Lab,47.19743,-52.83512,UNMU,Unknown Murre,Unknown Murre,seabirds,presume_positive,,,,,,,,Many,0,Many,,,,,,,,,"Dying, Facebook dm, number of birds not specified, TBMU/COMU",,,,,,,TB088,
MT-3460,TaniaBarychka,"Ship Island, St. Michaels",NL,Newfoundland,2022,7,22,2022-07-22,Glenda Melvin,Bill_Montevecchi_Lab,47.19743,-52.83512,RAZO,Razorbill,Alca torda,seabirds,presume_positive,,,,,,,,1,0,1,,,,,,,,,"Dying, Facebook dm",,,,,,,TB089,
MT-3461,TaniaBarychka,Portugal Cove South,NL,Newfoundland,2022,7,22,2022-07-22,Tim Baerwaird,Bill_Montevecchi_Lab,46.71414,-53.25473,COMU,Common Murre,Uria aalge,seabirds,presume_positive,,,,,,,,0,35,35,,,,,,,,,50% fresh,,,,,,,TB090,
MT-3462,TaniaBarychka,St. Vincents,NL,Newfoundland,2022,7,22,2022-07-22,Tim Baerwaird,Bill_Montevecchi_Lab,46.80076,-53.63737,COMU,Common Murre,Uria aalge,seabirds,presume_positive,,,,,,,,0,12,12,,,,,,,,,2 fledglings included,,,,,,,TB091,
MT-3463,TaniaBarychka,Holyrood Beach,NL,Newfoundland,2022,7,22,2022-07-22,Bill Montevecchi,Bill_Montevecchi_Lab,47.38598,-53.13161,UNBI,Unidentified Bird,"Aves (gen, sp)",unknown,presume_negative,,,,,,,,0,0,0,,,,,,,,,,,,,,,,TB092,
MT-3464,TaniaBarychka,Point Lance Beach,NL,Newfoundland,2022,7,22,2022-07-22,Montevecchi lab,Bill_Montevecchi_Lab,46.81375,-54.08388,NOGA,Northern Gannet,Morus bassanus,seabirds,presume_positive,,,Adult,,,,,,,18,,,,,,,,,,,,,,,,TB093,
MT-3465,TaniaBarychka,Point Lance Beach,NL,Newfoundland,2022,7,22,2022-07-22,Montevecchi lab,Bill_Montevecchi_Lab,46.81375,-54.08388,COMU,Common Murre,Uria aalge,seabirds,presume_positive,,,151 adults 6 fledglings,,,,,,,157,,,,,,,,,,,,,,,,TB094,
MT-3466,TaniaBarychka,Point Lance Beach,NL,Newfoundland,2022,7,22,2022-07-22,Montevecchi lab,Bill_Montevecchi_Lab,46.81375,-54.08388,BLKI,Black-legged Kittiwake,Rissa tridactyla,seabirds,presume_positive,,,Adult,,,,,,,4,,,,,,,,,,,,,,,,TB095,
MT-3467,TaniaBarychka,Point Lance Beach,NL,Newfoundland,2022,7,22,2022-07-22,Montevecchi lab,Bill_Montevecchi_Lab,46.81375,-54.08388,GRSH,Great Shearwater,Ardenna gravis,seabirds,presume_positive,,,,,,,,,,1,,,,,,,,,,,,,,,,TB096,
MT-3468,TaniaBarychka,Point Lance Beach,NL,Newfoundland,2022,7,22,2022-07-22,Montevecchi lab,Bill_Montevecchi_Lab,46.81375,-54.08388,NOFU,Northern Fulmar,Fulmarus glacialis,seabirds,presume_positive,,,,,,,,,,0,,,,,,,,,,,,,,,,TB097,
MT-3469,TaniaBarychka,Point Lance Beach,NL,Newfoundland,2022,7,22,2022-07-22,Montevecchi lab,Bill_Montevecchi_Lab,46.81375,-54.08388,DOVE,Dovekie,Alle alle,seabirds,presume_positive,,,,,,,,,,0,,,,,,,,,,,,,,,,TB098,
MT-3470,TaniaBarychka,Point Lance Beach,NL,Newfoundland,2022,7,22,2022-07-22,Montevecchi lab,Bill_Montevecchi_Lab,46.81375,-54.08388,HERG,Herring Gull,Larus argentatus,seabirds,presume_positive,,,,,,,,,,0,,,,,,,,,,,,,,,,TB099,
MT-3471,TaniaBarychka,Point Lance Beach,NL,Newfoundland,2022,7,22,2022-07-22,Montevecchi lab,Bill_Montevecchi_Lab,46.81375,-54.08388,RAZO,Razorbill,Alca torda,seabirds,presume_positive,,,Adult,,,,,,,1,,,,,,,,,,,,,,,,TB100,
MT-3472,TaniaBarychka,Trinity Bay,NL,Newfoundland,2022,7,22,2022-07-22,,Bill_Montevecchi_Lab,48.36753,-53.35593,BAEA,Bald Eagle,Haliaeetus leucocephalus,raptors,presume_positive,,,,,,,,0,1,1,,,,,,,,,Facebook,,,,,,,TB101,
MT-3945,Tania Barychka,Point La Haye,NL,Newfoundland,2022,7,22,2022-07-22,Local resident via Sabina W and C Ward,Chris Ward (ECCC),46.89214,-53.5977,UNMU,Unknown Murre,Unknown Murre,seabirds,presume_positive,,,,,Land,,,,90,90,,,,,,,,,80-90 dead,,,,,,,,
MT-3946,Tania Barychka,Point La Haye,NL,Newfoundland,2022,7,22,2022-07-22,Local resident via Sabina W and C Ward,Chris Ward (ECCC),46.89214,-53.5977,UNMU,Unknown Murre,Unknown Murre,seabirds,presume_positive,,,,,Land,,,15,,15,,,,,,,,,10-15 live,,,,,,,,
MT-3947,Tania Barychka,Point La Haye,NL,Newfoundland,2022,7,22,2022-07-22,Local resident via Sabina W and C Ward,Chris Ward (ECCC),46.89214,-53.5977,RAZO,Razorbill,Alca torda,seabirds,presume_positive,,,,,Land,,,5,,5,,,,,,,,,4-5 live,,,,,,,,
CT-2,Chris Ward,"Great Island, Witless Bay",NL,Newfoundland,2022,7,22,2022-07-22,Chris Ward,ECCC,47.187289,-52.81351,COMU,Common Murre,Uria aalge,seabirds,presume_positive,,,,,Colony,Complete Survey,Boat,3,1,4,0,0,0,,,,,,Full cliff nesting bird survey,,,,,,,,
CT-3,Chris Ward,"Gull Island, Witless Bay",NL,Newfoundland,2022,7,22,2022-07-22,Chris Ward,ECCC,47.256355,-52.776369,TBD,TBD,TBD,TBD,TBD,,,,,Colony,Complete Survey,Boat,,,0,0,0,0,,,,,,No significant bird deaths observed when conducting cliff nesting survey at Gull,,,,,,,,
CT-4,Chris Ward,"Ship Island, Witless Bay",NL,Newfoundland,2022,7,22,2022-07-22,Chris Ward,ECCC,47.19791,-52.835246,HERG,Herring Gull,Larus argentatus,seabirds,presume_positive,,,,,Colony,Complete Survey,Boat,,1,1,0,0,0,,,,,,"Full cliff nesting bird survey. Old, dead gull on beach on Ship Island",,,,,,,,
CT-5,Chris Ward,"Ship Island, Witless Bay",NL,Newfoundland,2022,7,22,2022-07-22,Chris Ward,ECCC,47.19791,-52.835246,COMU,Common Murre,Uria aalge,seabirds,presume_positive,,,,,Colony,Complete Survey,Boat,2,1,3,0,0,0,,,,,,Full cliff nesting bird survey,,,,,,,,
